,Unnamed: 0,bin_serial,row_id,id,bin_level,occluded,created_at,detected_at,raw_data_id,raw_data_setting_id,Seriale,DataUltimaRilevazione,DataUltimaTrasmissione,DataPrimaInstallazione,Esterno,Latitudine,Longitudine,Indirizzo,Cap,UnitaTerritoriale,Viario,Tronco,AreaGestionale,TipoAnomalia,to_visit,date,hour,Cluster_labels,Silhouette
0,0,119010133,682,15215101,4,1,2019-09-06 10:41:11,2019-09-06 10:41:07,259858832,21,119010133,2019-04-11 11:27:20,2019-04-11 11:42:20,2019-08-03 07:37:34,Si,45.475771325512106,9.223805763673113,VIALE ROMAGNA 60,20133,1 - OLGETTINA,3102.0,210.0,22 - CITTA' STUDI - LAMBRATE,,1,20190906,10,9,0.356124559333031
1,1,119010137,1493,15197040,4,1,2019-09-06 06:28:37,2019-09-06 06:28:35,259672420,21,119010137,2019-04-11 09:16:02,2019-04-11 12:01:37,2019-08-03 07:36:05,Si,45.475586299999996,9.2239964,VIALE ROMAGNA,20133,1 - OLGETTINA,3102.0,211.0,22 - CITTA' STUDI - LAMBRATE,,1,20190906,6,9,0.34298293690380044
2,2,119010245,2731,15216278,4,1,2019-09-06 10:58:37,2019-09-06 10:58:34,259871692,21,119010245,2019-04-11 10:29:47,2019-04-11 12:00:03,2019-04-18 07:23:37,Si,45.47946011139743,9.235383953813084,VIA CLERICETTI CELESTE 38,20133,1 - OLGETTINA,2221.0,5.0,22 - CITTA' STUDI - LAMBRATE,,1,20190906,10,14,0.12368786227595135
3,3,119010255,3222,15214287,2,2,2019-09-06 10:28:53,2019-09-06 10:28:52,259849878,21,119010255,2019-04-11 11:30:17,2019-04-11 11:30:17,2019-04-17 08:12:51,Si,45.51743130039819,9.225976688987998,VIALE MONZA 315,20126,1 - OLGETTINA,2274.0,120.0,19 - GORLA - VILLA SAN GIOVANNI,,1,20190906,10,16,0.6437928114281398
4,4,119010256,3512,15215293,3,1,2019-09-06 10:44:11,2019-09-06 10:44:05,259861088,21,119010256,2019-04-11 09:15:19,2019-04-11 11:45:45,2019-04-18 07:39:30,Si,45.48437650745299,9.236505957268491,PIAZZA BOTTINI ENRICO,20133,1 - OLGETTINA,2572.0,22.0,22 - CITTA' STUDI - LAMBRATE,,1,20190906,10,14,0.4688651444729125
5,5,119010258,4021,15207914,4,1,2019-09-06 09:04:57,2019-09-06 09:04:54,259788064,21,119010258,2019-04-11 09:20:45,2019-04-11 11:36:06,2019-04-18 07:32:07,Si,45.484212447609465,9.236221346508387,PIAZZA BOTTINI ENRICO 4,20133,1 - OLGETTINA,2572.0,15.0,22 - CITTA' STUDI - LAMBRATE,,1,20190906,9,14,0.48049195701495656
6,6,119010277,4543,15210064,4,1,2019-09-06 09:28:52,2019-09-06 09:28:49,259805667,21,119010277,2019-04-11 12:00:17,2019-04-11 12:00:17,2019-04-18 08:55:03,Si,45.473435525074905,9.230480336576989,VIA STRAMBIO GAETANO 10,20133,1 - OLGETTINA,3168.0,12.0,22 - CITTA' STUDI - LAMBRATE,,1,20190906,9,3,0.48239156637566216
7,7,119010870,5895,15212595,4,1,2019-09-06 10:01:44,2019-09-06 10:01:41,259829957,21,119010870,2019-03-11 12:33:27,2019-04-11 12:03:15,2019-06-03 08:26:28,Si,45.507655299999996,9.2366652,VIA PONTE NUOVO 40,20128,1 - OLGETTINA,2494.0,50.0,20 - PADOVA - ADRIANO,,1,20190906,10,5,0.3804184267853561
8,8,119010873,6873,15215713,3,1,2019-09-06 10:50:37,2019-09-06 10:50:34,259865876,21,119010873,2019-04-11 11:51:39,2019-04-11 11:51:39,2019-06-03 10:16:31,Si,45.51255820000001,9.229107699999998,VIA DON PORRO CARLO 23,20128,1 - OLGETTINA,2599.0,5.0,19 - GORLA - VILLA SAN GIOVANNI,,1,20190906,10,16,0.45912741685794484
9,9,119010877,7202,15203579,4,1,2019-09-06 08:12:48,2019-09-06 08:12:47,259749645,21,119010877,2019-04-11 11:44:03,2019-04-11 11:44:03,2019-06-03 09:09:01,Si,45.5063343,9.226065400000001,VIA STEFANARDO DA VIMERCATE,20128,1 - OLGETTINA,2456.0,20.0,19 - GORLA - VILLA SAN GIOVANNI,,1,20190906,8,0,0.3532291752041111
10,10,119010878,7587,15201947,4,2,2019-09-06 07:52:02,2019-09-06 07:36:56,259734241,21,119010878,2019-08-10 14:53:47,2019-09-10 06:22:33,2019-06-03 08:13:17,Si,45.505207500000004,9.2378344,VIA PONTE NUOVO,20128,1 - OLGETTINA,2494.0,20.0,20 - PADOVA - ADRIANO,ANOMALIA TX,1,20190906,7,5,0.5160417068127982
11,11,119010884,8972,15203566,4,1,2019-09-06 08:12:44,2019-09-06 08:12:38,259749531,21,119010884,2019-04-11 11:14:13,2019-04-11 11:44:18,2019-06-03 09:45:01,Si,45.5135534,9.234003999999999,VIA PONTE NUOVO,20128,1 - OLGETTINA,2494.0,56.0,19 - GORLA - VILLA SAN GIOVANNI,,1,20190906,8,16,0.23486382004033218
12,12,119010889,9286,15217097,4,2,2019-09-06 11:11:12,2019-09-06 10:56:11,259880925,21,119010889,2019-03-11 13:42:38,2019-04-11 11:42:20,2019-06-03 10:06:35,Si,45.510765,9.229656199999999,VIA DON PORRO CARLO 1,20128,1 - OLGETTINA,2599.0,10.0,19 - GORLA - VILLA SAN GIOVANNI,,1,20190906,10,16,0.3001407368339699
13,13,119010892,10177,15209562,4,1,2019-09-06 09:23:15,2019-09-06 09:08:12,259801544,21,119010892,2019-04-11 06:43:12,2019-04-11 11:54:56,2019-06-03 09:47:23,Si,45.5144764,9.232183099999999,VIA TREMELLONI ROBERTO,20128,1 - OLGETTINA,2645.0,65.0,19 - GORLA - VILLA SAN GIOVANNI,,1,20190906,9,16,0.424676943392489
14,14,119010897,11401,15191374,4,1,2019-09-06 04:01:41,2019-09-06 04:01:36,259562909,21,119010897,2019-04-11 10:38:45,2019-04-11 11:38:59,2019-06-03 10:02:04,Si,45.5124475,9.227643400000002,VIA DON BIGIOGERA ROBERTO 1,20128,1 - OLGETTINA,2714.0,41.0,19 - GORLA - VILLA SAN GIOVANNI,,1,20190906,4,16,0.4804385306471424
15,15,119010899,11787,15211050,4,1,2019-09-06 09:39:07,2019-09-06 09:39:04,259813175,21,119010899,2019-04-11 11:23:26,2019-04-11 11:38:26,2019-06-03 08:28:59,Si,45.5079877,9.2365153,VIA PONTE NUOVO 42,20128,1 - OLGETTINA,2494.0,60.0,20 - PADOVA - ADRIANO,,1,20190906,9,5,0.35953520702020925
16,16,119010908,13355,15192220,4,2,2019-09-06 04:34:46,2019-09-06 04:34:45,259587625,21,119010908,2019-04-11 09:17:58,2019-04-11 12:03:22,2019-06-03 07:56:09,Si,45.504828,9.2340951,VIA FALCONI ARMANDO 8,20128,1 - OLGETTINA,2489.0,5.0,19 - GORLA - VILLA SAN GIOVANNI,,1,20190906,4,5,0.3908331546754011
17,17,119010910,13874,15209972,3,1,2019-09-06 09:27:58,2019-09-06 09:12:57,259805060,21,119010910,2019-04-11 11:29:10,2019-04-11 11:59:14,2019-06-03 09:54:22,Si,45.5140824,9.229847900000001,VIA TREMELLONI ROBERTO 10,20128,1 - OLGETTINA,2645.0,35.0,19 - GORLA - VILLA SAN GIOVANNI,,1,20190906,9,16,0.5153371370244394
18,18,119010916,14325,15195685,4,1,2019-09-06 06:00:40,2019-09-06 06:00:39,259651702,21,119010916,2019-03-11 09:19:06,2019-03-11 10:28:16,2019-07-03 09:23:07,Si,45.50892587284454,9.248593265828164,VIA SANTA MARIA ROSSA 9,20132,1 - OLGETTINA,2527.0,5.0,20 - PADOVA - ADRIANO,,1,20190906,6,18,0.6009453921260847
19,19,119010923,15522,15200851,4,2,2019-09-06 07:36:15,2019-09-06 07:36:11,259722446,21,119010923,2019-03-11 13:53:27,2019-04-11 11:38:04,2019-08-03 08:01:08,Si,45.50360615096514,9.243338406539351,VIA BRESCIANI TURRONI COSTAN 2,20132,1 - OLGETTINA,2623.0,5.0,20 - PADOVA - ADRIANO,,1,20190906,7,5,0.17676300348649
20,20,119010926,16157,15192156,4,1,2019-09-06 04:32:45,2019-09-06 04:17:42,259586100,21,119010926,2019-10-16 19:12:23,2019-10-22 11:24:14,2019-07-03 09:08:22,Si,45.50974584247695,9.247445152311117,VIA AMALFI 2,20128,1 - OLGETTINA,2506.0,5.0,20 - PADOVA - ADRIANO,ANOMALIA TX,1,20190906,4,18,0.6171655190133314
21,21,219010931,17036,15200533,4,2,2019-09-06 07:31:17,2019-09-06 07:31:12,259718760,21,219010931,2019-04-11 10:03:35,2019-04-11 12:03:59,2019-07-03 08:56:36,Si,45.50910962770823,9.244213985945409,VIA MEUCCI ANTONIO 35,20128,1 - OLGETTINA,2497.0,5.0,20 - PADOVA - ADRIANO,,1,20190906,7,18,0.46127213346043144
22,22,219010935,17835,15189572,4,1,2019-09-06 02:08:50,2019-09-06 01:53:48,259478179,21,219010935,2019-04-11 09:06:59,2019-04-11 11:37:27,2019-08-03 08:11:00,Si,45.508133888503494,9.247226318054004,VIA GIULIETTI GIUSEPPE MARIA 8,20132,1 - OLGETTINA,2525.0,20.0,20 - PADOVA - ADRIANO,,1,20190906,1,18,0.5670979097606154
23,23,219010936,18053,15205382,4,1,2019-09-06 08:35:07,2019-09-06 08:20:04,259766079,21,219010936,2019-04-11 10:21:42,2019-04-11 11:36:51,2019-07-03 08:34:06,Si,45.51049743428874,9.243625320813864,VIA DEL RICORDO 20,20128,1 - OLGETTINA,2496.0,15.0,20 - PADOVA - ADRIANO,,1,20190906,8,18,0.46761470994565696
24,24,219010944,19184,15215086,4,1,2019-09-06 10:40:47,2019-09-06 10:40:46,259858538,21,219010944,2019-04-11 10:42:28,2019-04-11 11:42:38,2019-09-03 10:03:52,Si,45.471815509081146,9.232390411822394,VIA VISCONTI D'ARAGONA ALESSANDRO 19,20133,1 - OLGETTINA,3229.0,1.0,22 - CITTA' STUDI - LAMBRATE,,1,20190906,10,3,0.6111821773116622
25,25,219011009,22220,15206148,4,1,2019-09-06 08:45:25,2019-09-06 08:45:21,259773706,21,219011009,2019-02-10 09:45:42,2019-04-10 06:20:04,2019-11-03 08:11:05,Si,45.49944347404189,9.24189603446257,VIA CALABRIA DON GIOVANNI,20132,1 - OLGETTINA,2524.0,15.0,21 - PARCO LAMBRO - CIMIANO,ANOMALIA TX,1,20190906,8,5,0.5099513902190127
26,26,219011016,23184,15210698,4,1,2019-09-06 09:35:00,2019-09-06 09:34:59,259810207,21,219011016,2019-04-11 11:06:26,2019-04-11 11:36:33,2019-12-03 08:30:37,Si,45.4764079,9.2301865,VIA PONZIO GIUSEPPE,20133,1 - OLGETTINA,2585.0,10.0,22 - CITTA' STUDI - LAMBRATE,,1,20190906,9,3,0.09395365851345792
27,27,219011021,23613,15213030,4,1,2019-09-06 10:08:34,2019-09-06 10:08:33,259834939,21,219011021,2019-04-11 09:09:19,2019-04-11 11:39:52,2019-12-03 09:04:02,Si,45.47857617193017,9.234735671658427,VIA PASCAL CARLO 35,20133,1 - OLGETTINA,2225.0,10.0,22 - CITTA' STUDI - LAMBRATE,,1,20190906,10,3,0.04059547874175461
28,28,219011022,23858,15213149,4,1,2019-09-06 10:10:29,2019-09-06 10:10:28,259836335,21,219011022,2019-02-11 20:54:11,2019-04-11 11:42:02,2019-11-03 08:29:23,Si,45.49898708157082,9.243046439955377,VIA PUSIANO,20132,1 - OLGETTINA,2397.0,58.0,21 - PARCO LAMBRO - CIMIANO,,1,20190906,10,5,0.4309366466824634
29,29,219011023,24250,15214908,4,1,2019-09-06 10:38:10,2019-09-06 10:23:08,259856666,21,219011023,2019-03-11 10:09:46,2019-04-11 11:40:09,2019-11-03 08:01:04,Si,45.49261370000001,9.2379754,VIA MONFALCONE 14,20132,1 - OLGETTINA,2538.0,15.0,21 - PARCO LAMBRO - CIMIANO,,1,20190906,10,14,0.2222238072851718
30,30,219011028,25282,15215716,4,1,2019-09-06 10:50:37,2019-09-06 10:50:36,259865914,21,219011028,2019-04-11 11:52:27,2019-04-11 11:52:27,2019-12-03 07:43:57,Si,45.49151725384759,9.249663766233652,VIA MORELL S. J. PADRE LODOVICO 2,20134,1 - OLGETTINA,2723.0,65.0,21 - PARCO LAMBRO - CIMIANO,,1,20190906,10,11,0.23985461336914876
31,31,219011029,25476,15216087,4,1,2019-09-06 10:55:42,2019-09-06 10:40:41,259869561,21,219011029,2019-03-11 08:47:11,2019-04-11 11:57:07,2019-09-03 09:49:54,Si,45.46973551950307,9.23505322036192,VIA AJACCIO 5,20133,1 - OLGETTINA,3246.0,220.0,22 - CITTA' STUDI - LAMBRATE,,1,20190906,10,3,0.611517454259662
32,32,219011034,26486,15207214,4,1,2019-09-06 08:58:37,2019-09-06 08:43:32,259783429,21,219011034,2019-04-11 09:14:42,2019-04-11 12:00:06,2019-11-03 08:12:29,Si,45.4995920560534,9.242105105914105,VIA CALABRIA DON GIOVANNI 19,20132,1 - OLGETTINA,2524.0,15.0,21 - PARCO LAMBRO - CIMIANO,,1,20190906,8,5,0.4958224000257947
33,33,219011037,26921,15202058,4,2,2019-09-06 07:53:19,2019-09-06 07:53:17,259735222,21,219011037,2019-02-11 15:40:49,2019-04-11 11:55:15,2019-12-03 08:18:32,Si,45.47296783344937,9.230443332167622,PIAZZALE GORINI PAOLO 8,20133,1 - OLGETTINA,3170.0,50.0,22 - CITTA' STUDI - LAMBRATE,,1,20190906,7,3,0.5153904247773705
34,34,219011040,27669,15212606,4,1,2019-09-06 10:01:53,2019-09-06 10:01:51,259830079,21,219011040,2019-02-11 18:04:36,2019-04-11 10:33:10,2019-12-03 08:56:36,Si,45.47681135126372,9.236512472567256,VIA VALVASSORI PERONI CARLO,20133,1 - OLGETTINA,2580.0,10.0,22 - CITTA' STUDI - LAMBRATE,,1,20190906,10,3,0.2403807261300957
35,35,219011045,28817,15212412,4,1,2019-09-06 09:58:31,2019-09-06 09:43:27,259827558,21,219011045,2019-02-11 01:57:57,2019-04-11 12:00:09,2019-09-03 10:30:05,Si,45.4804559,9.2342485,VIA BASSINI EDOARDO 35,20133,1 - OLGETTINA,2587.0,40.0,22 - CITTA' STUDI - LAMBRATE,,1,20190906,9,14,0.24612539313003431
36,36,219011046,29258,15216318,4,1,2019-09-06 10:59:02,2019-09-06 10:59:01,259872028,21,219011046,2019-04-11 11:30:48,2019-04-11 12:00:53,2019-11-03 07:37:52,Si,45.491019744945326,9.229809770295443,VIA TEODOSIO IMPERATORE,20131,1 - OLGETTINA,2550.0,42.0,9 - CENTRALE - LORETO,,1,20190906,10,14,0.07978546332623987
37,37,219011047,29545,15215372,4,2,2019-09-06 10:45:14,2019-09-06 10:45:13,259861896,21,219011047,2019-04-11 07:05:43,2019-04-11 08:20:57,2019-11-03 07:41:56,Si,45.487930330455974,9.229849963807737,VIA TEODOSIO IMPERATORE 73,20131,1 - OLGETTINA,2550.0,10.0,9 - CENTRALE - LORETO,,1,20190906,10,14,0.23567764864238677
38,38,219011049,30114,15196998,4,1,2019-09-06 06:27:48,2019-09-06 06:27:46,259671794,21,219011049,2019-04-11 11:12:08,2019-04-11 11:27:08,2019-11-03 07:46:31,Si,45.487919847752856,9.229981890054203,VIA TEODOSIO IMPERATORE,20131,1 - OLGETTINA,2550.0,10.0,9 - CENTRALE - LORETO,,1,20190906,6,14,0.2552203019953868
39,39,219011050,30301,15215756,4,1,2019-09-06 10:51:06,2019-09-06 10:51:00,259866174,21,219011050,2019-04-11 08:21:58,2019-04-11 11:52:32,2019-11-03 08:14:57,Si,45.50024705151982,9.243077234327757,VIA CALABRIA DON GIOVANNI 24,20132,1 - OLGETTINA,2524.0,10.0,21 - PARCO LAMBRO - CIMIANO,,1,20190906,10,5,0.40871180107594407
40,40,219011053,30882,15192997,4,1,2019-09-06 04:57:52,2019-09-06 04:42:50,259604931,21,219011053,2019-04-11 11:26:30,2019-04-11 11:56:35,2019-12-03 07:48:56,Si,45.49151710109174,9.246740538878953,VIA FELTRE,20134,1 - OLGETTINA,2652.0,105.0,21 - PARCO LAMBRO - CIMIANO,,1,20190906,4,11,0.1569279448116087
41,41,219011584,31802,15212905,4,1,2019-09-06 10:06:43,2019-09-06 09:51:40,259833556,21,219011584,2019-04-11 10:52:45,2019-04-11 11:37:50,2019-05-03 09:49:53,Si,45.5057976,9.2289709,VIA ASIAGO 41,20128,1 - OLGETTINA,2459.0,40.0,19 - GORLA - VILLA SAN GIOVANNI,,1,20190906,9,0,0.32037528392312375
42,42,219011588,32745,15214986,4,1,2019-09-06 10:39:19,2019-09-06 10:39:13,259857403,21,219011588,2019-04-11 10:10:10,2019-04-11 11:40:24,2019-04-03 07:27:59,Si,45.5006961462631,9.24156490120879,VIA PALMANOVA 27,20132,1 - OLGETTINA,2390.0,40.0,20 - PADOVA - ADRIANO,,1,20190906,10,5,0.5160833121797762
43,43,219011589,33127,15201754,1,2,2019-09-06 07:49:33,2019-09-06 07:49:28,259732426,21,219011589,2019-04-11 11:20:52,2019-04-11 11:50:57,2019-05-03 07:38:01,Si,45.49457647714325,9.221343116828166,VIA ROVERETO 55,20127,1 - OLGETTINA,2300.0,5.0,9 - CENTRALE - LORETO,,1,20190906,7,19,0.41784182082468385
44,44,219011590,33444,15215387,4,1,2019-09-06 10:45:43,2019-09-06 10:45:38,259862170,21,219011590,2019-04-11 08:16:59,2019-04-11 11:47:33,2019-04-03 09:17:14,Si,45.508905695735656,9.246916396599318,VIA PADOVA 283,20132,1 - OLGETTINA,2275.0,190.0,20 - PADOVA - ADRIANO,,1,20190906,10,18,0.5901870446790931
45,45,219011592,33909,15200369,4,2,2019-09-06 07:29:04,2019-09-06 07:29:00,259717116,21,219011592,2019-04-11 11:56:24,2019-04-11 11:56:24,2019-05-03 08:51:01,Si,45.5060383,9.224540600000001,VIA ARISTOTELE 24/A,20128,1 - OLGETTINA,2488.0,10.0,19 - GORLA - VILLA SAN GIOVANNI,,1,20190906,7,0,0.4065943874946882
46,46,219011599,35868,15216873,2,2,2019-09-06 11:07:51,2019-09-06 10:52:49,259878439,21,219011599,2019-04-11 10:39:17,2019-04-11 11:39:28,2019-04-03 07:22:01,Si,45.502660505662796,9.238482955329003,VIA PERTICARI GIULIO 1,20127,1 - OLGETTINA,2383.0,15.0,20 - PADOVA - ADRIANO,,1,20190906,10,5,0.6226032926778872
47,47,219011603,36908,15216703,2,2,2019-09-06 11:05:28,2019-09-06 10:50:25,259876701,21,219011603,2019-04-11 09:06:18,2019-04-11 11:36:43,2019-05-03 08:30:01,Si,45.508317100000006,9.2297096,VIA TEOCRITO 47,20128,1 - OLGETTINA,2485.0,35.0,19 - GORLA - VILLA SAN GIOVANNI,,1,20190906,10,16,-0.020895962899882683
48,48,219011611,38576,15199306,4,2,2019-09-06 07:12:06,2019-09-06 07:12:04,259704587,21,219011611,2019-04-11 10:24:46,2019-04-11 11:39:57,2019-05-03 10:01:23,Si,45.5065178,9.2329031,VIA ASIAGO 77,20128,1 - OLGETTINA,2459.0,5.0,19 - GORLA - VILLA SAN GIOVANNI,,1,20190906,7,5,0.2199405996616064
49,49,219011612,38962,15204211,4,1,2019-09-06 08:20:28,2019-09-06 08:20:25,259755392,21,219011612,2019-01-11 09:36:38,2019-04-11 11:48:02,2019-05-03 10:10:53,Si,45.5068246,9.234683500000001,VIA GOLFO DEGLI ARANCI 25,20128,1 - OLGETTINA,2463.0,15.0,19 - GORLA - VILLA SAN GIOVANNI,,1,20190906,8,5,0.390631396780245
50,50,219011616,40101,15212464,4,2,2019-09-06 09:59:24,2019-09-06 09:59:20,259828185,21,219011616,2019-04-11 11:46:01,2019-04-11 12:01:01,2019-05-03 09:53:21,Si,45.50612020000001,9.2302744,VIA ASIAGO 51,20128,1 - OLGETTINA,2459.0,50.0,19 - GORLA - VILLA SAN GIOVANNI,,1,20190906,9,0,0.14503968060986946
51,51,219011620,41490,15211265,4,2,2019-09-06 09:41:47,2019-09-06 09:41:44,259815252,21,219011620,2019-04-11 11:39:50,2019-04-11 11:54:50,2019-05-03 08:35:06,Si,45.5101802,9.2266081,VIA APELLE 59,20128,1 - OLGETTINA,2454.0,5.0,19 - GORLA - VILLA SAN GIOVANNI,,1,20190906,9,16,0.2647767820151536
52,52,219011621,41827,15216212,4,1,2019-09-06 10:57:36,2019-09-06 10:57:35,259870952,21,219011621,2019-04-11 10:58:44,2019-04-11 11:58:54,2019-04-03 07:17:29,Si,45.50146959992389,9.237047414073233,VIA PADOVA 173,20132,1 - OLGETTINA,2275.0,530.0,20 - PADOVA - ADRIANO,,1,20190906,10,5,0.6313131344039739
53,53,219011624,42664,15204947,4,1,2019-09-06 08:29:49,2019-09-06 08:29:47,259762210,21,219011624,2019-04-11 10:17:01,2019-04-11 12:02:16,2019-04-03 08:22:38,Si,45.501880660677465,9.237476168126818,VIA PADOVA 177,20127,1 - OLGETTINA,2275.0,520.0,20 - PADOVA - ADRIANO,,1,20190906,8,5,0.6502432232623436
54,54,219011629,43622,15201024,4,1,2019-09-06 07:39:12,2019-09-06 07:39:06,259724486,21,219011629,2019-04-11 09:40:23,2019-04-11 11:40:42,2019-04-03 09:08:45,Si,45.506186548337844,9.243174469184167,VIA PADOVA 256,20127,1 - OLGETTINA,2275.0,160.0,20 - PADOVA - ADRIANO,,1,20190906,7,18,0.08541570448247203
55,55,219011630,43874,15215093,4,1,2019-09-06 10:40:56,2019-09-06 10:25:54,259858667,21,219011630,2019-04-11 09:14:48,2019-04-11 12:00:15,2019-05-03 10:05:36,Si,45.506489,9.2333224,VIA ASTICO 76,20128,1 - OLGETTINA,2462.0,5.0,19 - GORLA - VILLA SAN GIOVANNI,,1,20190906,10,5,0.27119500986470196
56,56,219011632,44433,15215059,2,2,2019-09-06 10:40:17,2019-09-06 10:40:15,259858210,21,219011632,2019-04-11 10:56:43,2019-04-11 11:41:48,2019-02-25 08:04:01,Si,45.48095399372146,9.209451305197378,VIA TADINO ALESSANDRO 45,20124,1 - OLGETTINA,2109.0,8.0,2 - PORTA VENEZIA - BUENOS AIRES,,1,20190906,10,12,0.15111782385604236
57,57,219011634,45195,15213458,4,2,2019-09-06 10:15:43,2019-09-06 10:15:37,259840161,21,219011634,2019-04-11 09:31:56,2019-04-11 11:47:18,2019-02-25 09:09:28,Si,45.481848933852405,9.209416682757363,VIA MARCELLO BENEDETTO 32,20124,1 - OLGETTINA,2128.0,20.0,2 - PORTA VENEZIA - BUENOS AIRES,,1,20190906,10,12,0.27885304306356895
58,58,219011638,46354,15213120,4,1,2019-09-06 10:09:55,2019-09-06 10:09:51,259835845,21,219011638,2019-04-11 09:14:17,2019-04-11 11:59:47,2019-02-25 09:34:06,Si,45.47966642280937,9.208153465869486,VIA TADINO ALESSANDRO 26/A,20124,1 - OLGETTINA,2109.0,6.0,2 - PORTA VENEZIA - BUENOS AIRES,,1,20190906,10,1,0.22809631970896715
59,59,219011641,47301,15209871,4,1,2019-09-06 09:26:50,2019-09-06 09:11:48,259804220,21,219011641,2019-04-11 01:31:03,2019-04-11 11:58:39,2019-02-25 08:16:28,Si,45.48159623455822,9.208321204108644,VIA VITRUVIO 18,20124,1 - OLGETTINA,2134.0,3.0,2 - PORTA VENEZIA - BUENOS AIRES,,1,20190906,9,12,0.12235410107723857
60,60,219011646,48624,15216994,4,2,2019-09-06 11:09:45,2019-09-06 10:54:45,259879813,21,219011646,2019-03-11 17:56:58,2019-04-11 11:41:03,2019-02-25 09:33:29,Si,45.47972036096362,9.208220974898154,VIA TADINO ALESSANDRO 53,20124,1 - OLGETTINA,2109.0,7.0,2 - PORTA VENEZIA - BUENOS AIRES,,1,20190906,10,1,0.21356383471338258
61,61,219011647,48912,15217225,4,1,2019-09-06 11:13:04,2019-09-06 10:58:00,259882335,21,219011647,2019-04-11 11:37:48,2019-04-11 11:37:48,2019-02-25 07:36:06,Si,45.48592596415575,9.213234540417377,VIALE DORIA ANDREA 31,20124,1 - OLGETTINA,2230.0,7.0,2 - PORTA VENEZIA - BUENOS AIRES,,1,20190906,10,12,0.5965290081654183
62,62,219011650,49833,15203939,4,2,2019-09-06 08:16:58,2019-09-06 08:01:52,259752724,21,219011650,2019-04-11 10:48:34,2019-04-11 11:48:47,2019-02-25 07:38:05,Si,45.485508972379705,9.213328849156367,VIA PALESTRINA 12,20124,1 - OLGETTINA,2235.0,40.0,2 - PORTA VENEZIA - BUENOS AIRES,,1,20190906,8,12,0.6150129402621818
63,63,219011654,50807,15214050,4,1,2019-09-06 10:25:11,2019-09-06 10:10:08,259847167,21,219011654,2019-04-11 11:43:39,2019-04-11 11:58:39,2019-02-25 10:50:56,Si,45.47726073209907,9.205481481684616,VIALE TUNISIA 9,20124,1 - OLGETTINA,2121.0,2.0,2 - PORTA VENEZIA - BUENOS AIRES,,1,20190906,10,1,0.4154835283980985
64,64,219011655,51099,15202848,4,2,2019-09-06 08:03:50,2019-09-06 08:03:47,259742908,21,219011655,2019-10-21 01:03:55,2019-04-11 11:37:52,2019-02-25 08:21:33,Si,45.48133230141109,9.208755007990703,VIA MARCELLO BENEDETTO 26,20124,1 - OLGETTINA,2128.0,20.0,2 - PORTA VENEZIA - BUENOS AIRES,,1,20190906,8,12,0.13085811063705405
65,65,219011658,51889,15203434,4,1,2019-09-06 08:11:06,2019-09-06 08:11:04,259748296,21,219011658,2019-04-11 11:43:03,2019-04-11 11:43:03,2019-02-25 08:04:59,Si,45.4811540234454,9.209069742513977,VIA VITRUVIO 12,20124,1 - OLGETTINA,2134.0,2.0,2 - PORTA VENEZIA - BUENOS AIRES,,1,20190906,8,12,0.13896184002771345
66,66,219011662,52544,15214697,4,1,2019-09-06 10:35:08,2019-09-06 10:35:07,259854444,21,219011662,2019-04-11 11:21:34,2019-04-11 11:51:39,2019-02-26 08:38:36,Si,45.47820049749698,9.199864630973023,VIA MANUZIO ALDO 6,20124,1 - OLGETTINA,2114.0,2.0,9 - CENTRALE - LORETO,,1,20190906,10,10,0.27833928149820947
67,67,219011665,53476,15212291,4,1,2019-09-06 09:56:37,2019-09-06 09:56:36,259826213,21,219011665,2019-04-11 09:57:38,2019-04-11 11:57:58,2019-02-25 10:52:38,Si,45.47711962401878,9.205768570584835,VIALE TUNISIA 8,20124,1 - OLGETTINA,2121.0,2.0,2 - PORTA VENEZIA - BUENOS AIRES,,1,20190906,9,1,0.4504411397103855
68,68,219011667,54097,15216904,4,2,2019-09-06 11:08:22,2019-09-06 10:53:19,259878817,21,219011667,2019-04-11 11:30:40,2019-04-11 12:00:45,2019-02-25 07:31:59,Si,45.48610803212078,9.21469155304601,VIALE DORIA ANDREA 39,20124,1 - OLGETTINA,2230.0,7.0,2 - PORTA VENEZIA - BUENOS AIRES,,1,20190906,10,12,0.5169428502663737
69,69,219011670,54790,15212302,4,1,2019-09-06 09:56:51,2019-09-06 09:56:48,259826353,21,219011670,2019-04-11 10:57:56,2019-04-11 11:58:06,2019-02-25 10:17:14,Si,45.48407535155134,9.214333556772543,VIA MERCADANTE SAVERIO 1,20124,1 - OLGETTINA,2232.0,5.0,2 - PORTA VENEZIA - BUENOS AIRES,,1,20190906,9,12,0.6364272497962543
70,70,219011672,55242,15192117,4,1,2019-09-06 04:31:34,2019-09-06 04:31:32,259585273,21,219011672,2019-04-11 09:19:22,2019-04-11 12:04:50,2019-02-25 09:55:22,Si,45.4857926332655,9.214086554091637,VIALE DORIA ANDREA 44,20124,1 - OLGETTINA,2230.0,370.0,2 - PORTA VENEZIA - BUENOS AIRES,,1,20190906,4,12,0.5720362526840875
71,71,219011675,56089,15216749,4,1,2019-09-06 11:06:03,2019-09-06 10:51:02,259877157,21,219011675,2019-10-17 14:07:30,2019-10-17 16:38:01,2019-02-25 10:08:08,Si,45.48350541761555,9.211742793369352,VIA MERCADANTE SAVERIO 8,20124,1 - OLGETTINA,2232.0,1.0,2 - PORTA VENEZIA - BUENOS AIRES,ANOMALIA TX,1,20190906,10,12,0.58634871661365
72,72,219011676,56468,15204684,4,2,2019-09-06 08:26:11,2019-09-06 08:11:10,259759555,21,219011676,2019-04-11 10:08:29,2019-04-11 11:53:45,2019-02-25 09:47:48,Si,45.4850941269976,9.214028269055461,VIA PALESTRINA 6,20124,1 - OLGETTINA,2235.0,40.0,2 - PORTA VENEZIA - BUENOS AIRES,,1,20190906,8,12,0.6108121913266201
73,73,219011680,57505,15195223,4,1,2019-09-06 05:51:08,2019-09-06 05:51:05,259644642,21,219011680,2019-04-11 11:03:52,2019-04-11 11:48:56,2019-02-27 07:43:03,Si,45.47833203540857,9.214672153192168,VIA EUSTACHI BARTOLOMEO,20129,1 - OLGETTINA,2165.0,5.0,2 - PORTA VENEZIA - BUENOS AIRES,,1,20190906,5,12,0.21318787042379386
74,74,219011681,57663,15203501,4,2,2019-09-06 08:11:55,2019-09-06 08:11:51,259748932,21,219011681,2019-04-11 11:05:07,2019-04-11 11:35:12,2019-02-27 08:23:07,Si,45.479788255055524,9.211282258702113,VIA MASERA GIOVANNI 16,20124,1 - OLGETTINA,2147.0,4.0,2 - PORTA VENEZIA - BUENOS AIRES,,1,20190906,8,12,0.1636780944943094
75,75,219011683,58071,15215399,4,1,2019-09-06 10:45:45,2019-09-06 10:30:44,259862265,21,219011683,2019-04-11 11:28:07,2019-04-11 11:43:07,2019-02-27 10:23:42,Si,45.481679992033825,9.219389080105543,VIA GAROFALO B. 22,20133,1 - OLGETTINA,2194.0,4.0,2 - PORTA VENEZIA - BUENOS AIRES,,1,20190906,10,9,0.12790011611310526
76,76,219011685,58381,15210266,4,1,2019-09-06 09:30:55,2019-09-06 09:30:50,259807123,21,219011685,2019-04-11 09:53:00,2019-04-11 11:02:14,2019-02-27 10:26:00,Si,45.48032229878557,9.219349233439177,VIA GAROFALO B. 22/A,20133,1 - OLGETTINA,2194.0,3.0,2 - PORTA VENEZIA - BUENOS AIRES,,1,20190906,9,9,0.20850520235926862
77,77,219011686,58721,15202718,4,2,2019-09-06 08:02:10,2019-09-06 08:02:05,259741660,21,219011686,2019-04-11 12:04:03,2019-04-11 12:04:03,2019-02-27 07:57:18,Si,45.47659085918776,9.21472524195076,VIA EUSTACHI BARTOLOMEO 28,20129,1 - OLGETTINA,2165.0,4.0,2 - PORTA VENEZIA - BUENOS AIRES,,1,20190906,8,6,0.10944252117350978
78,78,219011689,59307,15211894,4,2,2019-09-06 09:50:20,2019-09-06 09:50:18,259821641,21,219011689,2019-04-11 11:20:59,2019-04-11 11:51:07,2019-02-27 10:18:04,Si,45.483482940731754,9.217197413354144,VIALE GRAN SASSO,20131,1 - OLGETTINA,2243.0,90.0,2 - PORTA VENEZIA - BUENOS AIRES,,1,20190906,9,12,0.407423128621371
79,79,219011691,59749,15208118,3,1,2019-09-06 09:06:47,2019-09-06 09:06:45,259789412,21,219011691,2019-04-11 08:22:53,2019-04-11 11:38:25,2019-02-27 09:58:21,Si,45.47910172651915,9.217300942109318,VIALE ABRUZZI 38,20131,1 - OLGETTINA,2177.0,8.0,2 - PORTA VENEZIA - BUENOS AIRES,,1,20190906,9,12,0.11865743176469867
80,80,219011692,60086,15215552,4,2,2019-09-06 10:48:18,2019-09-06 10:33:13,259864143,21,219011692,2019-10-29 11:19:08,2019-04-11 11:49:49,2019-02-27 07:43:02,Si,45.47589310000001,9.2233427,VIA PASCOLI GIOVANNI 41,20129,1 - OLGETTINA,3132.0,30.0,2 - PORTA VENEZIA - BUENOS AIRES,,1,20190906,10,9,0.3320437909367253
81,81,219011693,60364,15189378,4,1,2019-09-06 01:52:53,2019-09-06 01:52:48,259466238,21,219011693,2019-04-11 09:20:52,2019-04-11 11:51:20,2019-02-27 07:45:08,Si,45.47570402522745,9.223391568235913,VIALE ROMAGNA,20133,1 - OLGETTINA,3102.0,170.0,2 - PORTA VENEZIA - BUENOS AIRES,,1,20190906,1,9,0.30664164245022985
82,82,219011694,60652,15213923,4,1,2019-09-06 10:23:11,2019-09-06 10:08:10,259845733,21,219011694,2019-04-11 11:09:35,2019-04-11 11:54:40,2019-02-27 07:46:22,Si,45.47818412367744,9.214987605319948,VIA STRADELLA ALESSANDRO 2,20129,1 - OLGETTINA,2170.0,1.0,2 - PORTA VENEZIA - BUENOS AIRES,,1,20190906,10,12,0.16614099773136143
83,83,219011695,61015,15215416,4,1,2019-09-06 10:46:00,2019-09-06 10:31:00,259862483,21,219011695,2019-04-11 09:52:21,2019-04-11 11:52:48,2019-02-27 08:11:29,Si,45.4742782,9.218726199999999,VIA AMEDEO D'AOSTA 3,20129,1 - OLGETTINA,2095.0,140.0,2 - PORTA VENEZIA - BUENOS AIRES,,1,20190906,10,6,0.45918797424598773
84,84,219011697,61303,15213188,4,2,2019-09-06 10:11:18,2019-09-06 09:56:14,259836954,21,219011697,2019-04-11 10:42:30,2019-04-11 11:42:42,2019-02-27 07:35:04,Si,45.47453100399808,9.214781005637294,VIA EUSTACHI BARTOLOMEO 10,20129,1 - OLGETTINA,2165.0,2.0,2 - PORTA VENEZIA - BUENOS AIRES,,1,20190906,9,6,0.27472009483209114
85,85,219011700,62178,15206543,4,2,2019-09-06 08:51:04,2019-09-06 08:50:59,259777852,21,219011700,2019-03-11 07:53:35,2019-04-11 11:54:06,2019-02-27 08:15:10,Si,45.4737357,9.2179757,VIA PASCOLI GIOVANNI 2,20129,1 - OLGETTINA,3132.0,2.0,2 - PORTA VENEZIA - BUENOS AIRES,,1,20190906,8,6,0.5411152413437733
86,86,219011701,62344,15190193,4,1,2019-09-06 02:49:38,2019-09-06 02:34:34,259508846,21,219011701,2019-04-11 10:16:51,2019-04-11 11:47:06,2019-02-27 07:39:45,Si,45.479780192920856,9.214655814813456,PIAZZALE BACONE FRANCESCO,20129,1 - OLGETTINA,2100.0,50.0,2 - PORTA VENEZIA - BUENOS AIRES,,1,20190906,2,12,0.39171423216862583
87,87,219011702,62686,15213417,4,1,2019-09-06 10:14:53,2019-09-06 10:14:52,259839631,21,219011702,2019-04-11 10:46:48,2019-04-11 11:46:58,2019-02-27 10:07:51,Si,45.48293763095015,9.217216008626336,VIALE ABRUZZI 74,20131,1 - OLGETTINA,2177.0,171.0,2 - PORTA VENEZIA - BUENOS AIRES,,1,20190906,10,12,0.3829627675290103
88,88,219011706,63764,15209964,4,1,2019-09-06 09:27:51,2019-09-06 09:12:51,259804968,21,219011706,2019-04-11 09:44:41,2019-04-11 12:00:07,2019-02-27 07:51:28,Si,45.476072185401314,9.214717586014556,VIA EUSTACHI BARTOLOMEO 19,20129,1 - OLGETTINA,2165.0,3.0,2 - PORTA VENEZIA - BUENOS AIRES,,1,20190906,9,6,0.14672968262841599
89,89,219011708,64247,15207338,4,1,2019-09-06 09:00:03,2019-09-06 08:59:58,259784446,21,219011708,2019-04-11 12:01:25,2019-04-11 12:01:25,2019-02-27 07:35:27,Si,45.47433691899788,9.219620333643434,VIA PASCOLI GIOVANNI 40,20129,1 - OLGETTINA,3132.0,130.0,2 - PORTA VENEZIA - BUENOS AIRES,,1,20190906,8,6,0.3909228490468997
90,90,219011709,64557,15213194,4,1,2019-09-06 10:11:19,2019-09-06 09:56:18,259837012,21,219011709,2019-04-11 09:12:09,2019-04-11 11:42:35,2019-02-27 10:02:59,Si,45.48029714351709,9.217255876384911,VIA DONATELLO DONATO DE BARDI 50,20131,1 - OLGETTINA,2214.0,1.0,2 - PORTA VENEZIA - BUENOS AIRES,,1,20190906,9,12,0.216283944443517
91,91,219011710,65024,15215127,4,1,2019-09-06 10:41:31,2019-09-06 10:41:25,259859090,21,219011710,2019-04-11 11:12:53,2019-04-11 11:42:58,2019-02-27 10:05:22,Si,45.48134378231825,9.217250701891542,VIA PAISIELLO GIOVANNI 2,20131,1 - OLGETTINA,2245.0,1.0,2 - PORTA VENEZIA - BUENOS AIRES,,1,20190906,10,12,0.2893667377136151
92,92,219011711,65511,15208598,4,1,2019-09-06 09:11:08,2019-09-06 09:11:04,259792614,21,219011711,2019-04-11 10:38:52,2019-04-11 11:39:02,2019-02-27 10:31:51,Si,45.4782307337115,9.2194357739088,VIA GAROFALO B. 1,20133,1 - OLGETTINA,2194.0,1.0,2 - PORTA VENEZIA - BUENOS AIRES,,1,20190906,9,9,0.18488571351551858
93,93,219011712,65895,15215648,4,1,2019-09-06 10:49:29,2019-09-06 10:34:27,259865055,21,219011712,2019-03-11 11:21:07,2019-04-11 11:51:10,2019-02-27 10:40:00,Si,45.468177565793816,9.208587760553428,VIA KRAMER ANTONIO 3,20129,1 - OLGETTINA,3180.0,1.0,2 - PORTA VENEZIA - BUENOS AIRES,,1,20190906,10,1,0.279747689817426
94,94,219011714,66355,15212031,4,1,2019-09-06 09:52:31,2019-09-06 09:52:29,259823133,21,219011714,2019-04-11 11:54:37,2019-04-11 11:54:37,2019-02-27 08:46:17,Si,45.479571458430854,9.211194772762838,VIA ALDROVANDI ULISSE 7,20129,1 - OLGETTINA,2145.0,2.0,2 - PORTA VENEZIA - BUENOS AIRES,,1,20190906,9,12,0.11087337998247207
95,95,219011717,66755,15214455,4,2,2019-09-06 10:31:31,2019-09-06 10:31:29,259851802,21,219011717,2019-04-11 12:01:41,2019-04-11 12:01:41,2019-02-27 06:58:21,Si,45.47529158265289,9.2132152153099,VIA STOPPANI ANTONIO 14,20129,1 - OLGETTINA,2163.0,2.0,2 - PORTA VENEZIA - BUENOS AIRES,,1,20190906,10,1,0.07779477679685555
96,96,219011724,68016,15204861,4,2,2019-09-06 08:28:42,2019-09-06 08:13:38,259761327,21,219011724,2019-04-11 09:59:50,2019-04-11 12:00:14,2019-02-27 09:59:08,Si,45.4722671,9.210861099999999,VIA BIXIO NINO 24,20129,1 - OLGETTINA,3133.0,3.0,2 - PORTA VENEZIA - BUENOS AIRES,,1,20190906,8,1,0.28913704700923626
97,97,219011725,68243,15211923,4,1,2019-09-06 09:50:50,2019-09-06 09:50:47,259821973,21,219011725,2019-04-11 11:52:10,2019-04-11 11:52:10,2019-02-27 10:16:48,Si,45.483432461820975,9.217248950842077,VIALE GRAN SASSO,20131,1 - OLGETTINA,2243.0,90.0,2 - PORTA VENEZIA - BUENOS AIRES,,1,20190906,9,12,0.39852268876767005
98,98,219011729,69210,15205384,4,2,2019-09-06 08:35:08,2019-09-06 08:35:07,259766122,21,219011729,2019-04-11 11:40:15,2019-04-11 11:40:15,2019-02-27 06:59:55,Si,45.47531516676361,9.213296741004,VIA STOPPANI ANTONIO 11,20129,1 - OLGETTINA,2163.0,2.0,2 - PORTA VENEZIA - BUENOS AIRES,,1,20190906,8,1,0.0622378985852487
99,99,219011730,69441,15193549,4,1,2019-09-06 05:13:27,2019-09-06 05:13:25,259616568,21,219011730,2019-04-11 10:41:38,2019-04-11 11:11:45,2019-02-27 07:05:42,Si,45.475682353440256,9.215055175055797,VIA HAYEZ FRANCESCO 2,20129,1 - OLGETTINA,2172.0,1.0,2 - PORTA VENEZIA - BUENOS AIRES,,1,20190906,5,6,0.22842451525269636
100,100,219011732,70050,15213792,4,1,2019-09-06 10:21:06,2019-09-06 10:06:01,259844163,21,219011732,2019-04-11 11:22:45,2019-04-11 11:52:50,2019-02-28 08:14:02,Si,45.481193299206865,9.216558781572305,VIA MATTEUCCI CARLO 4,20129,1 - OLGETTINA,2167.0,1.0,2 - PORTA VENEZIA - BUENOS AIRES,,1,20190906,10,12,0.38169018436235713
101,101,219011736,71052,15203996,4,1,2019-09-06 08:17:39,2019-09-06 08:17:37,259753259,21,219011736,2019-04-11 07:48:23,2019-04-11 11:49:18,2019-02-27 07:13:27,Si,45.47414747374522,9.215669023064605,VIA STOPPANI ANTONIO 34,20129,1 - OLGETTINA,2163.0,5.0,2 - PORTA VENEZIA - BUENOS AIRES,,1,20190906,8,6,0.41678382036631856
102,102,219011737,71333,15203776,4,2,2019-09-06 08:15:04,2019-09-06 08:14:59,259751275,21,219011737,2019-04-11 07:05:14,2019-04-11 11:47:07,2019-02-28 08:08:36,Si,45.48303499339786,9.21425873349972,VIA PICCINNI NICOLA 2,20131,1 - OLGETTINA,2236.0,1.0,2 - PORTA VENEZIA - BUENOS AIRES,,1,20190906,8,12,0.634170465062071
103,103,219011739,71675,15198417,4,1,2019-09-06 06:59:36,2019-09-06 06:56:07,259692885,21,219011739,2019-04-11 10:09:00,2019-04-11 11:54:14,2019-02-28 09:17:29,Si,45.47925663343508,9.221337982248087,PIAZZA BERNINI GIAN LORENZO 6,20133,1 - OLGETTINA,2201.0,3.0,2 - PORTA VENEZIA - BUENOS AIRES,,1,20190906,6,9,0.49920209353745826
104,104,219011741,72298,15209818,4,1,2019-09-06 09:26:24,2019-09-06 09:26:20,259803853,21,219011741,2019-04-11 11:57:37,2019-04-11 11:57:37,2019-02-27 06:50:55,Si,45.47629937479953,9.211293230630645,PIAZZALE LAVATER JOHANN KASPAR 2,20129,1 - OLGETTINA,2155.0,6.0,2 - PORTA VENEZIA - BUENOS AIRES,,1,20190906,9,1,0.3936937190707529
105,105,219011742,72550,15214327,3,1,2019-09-06 10:29:37,2019-09-06 10:14:33,259850367,21,219011742,2019-04-11 12:01:07,2019-04-11 12:01:07,2019-02-27 06:52:30,Si,45.47635607839618,9.211168775974217,PIAZZALE LAVATER JOHANN KASPAR 11,20129,1 - OLGETTINA,2155.0,6.0,2 - PORTA VENEZIA - BUENOS AIRES,,1,20190906,10,1,0.4001020404696262
106,106,219011743,72792,15209219,4,1,2019-09-06 09:18:50,2019-09-06 09:03:48,259798381,21,219011743,2019-04-11 10:20:27,2019-04-11 11:50:42,2019-02-28 09:12:46,Si,45.47856942989228,9.22048700529649,VIA RONCIGLIONE 24,20133,1 - OLGETTINA,2098.0,1.0,2 - PORTA VENEZIA - BUENOS AIRES,,1,20190906,9,9,0.3541944055932667
107,107,219011744,72988,15206798,3,1,2019-09-06 08:53:48,2019-09-06 08:53:47,259779900,21,219011744,2019-04-11 11:56:10,2019-04-11 11:56:10,2019-02-28 08:16:32,Si,45.481177284552345,9.216446776018074,VIA MATTEUCCI CARLO 4,20129,1 - OLGETTINA,2167.0,1.0,2 - PORTA VENEZIA - BUENOS AIRES,,1,20190906,8,12,0.39497024272602604
108,108,219011746,73428,15206715,3,1,2019-09-06 08:53:02,2019-09-06 08:43:00,259779313,21,219011746,2019-04-11 11:40:00,2019-04-11 11:55:00,2019-02-28 09:46:55,Si,45.479650519878476,9.223554891427057,VIALE ROMAGNA,20131,1 - OLGETTINA,3102.0,190.0,2 - PORTA VENEZIA - BUENOS AIRES,,1,20190906,8,9,0.679071855727315
109,109,219011747,73756,15213472,4,1,2019-09-06 10:15:52,2019-09-06 10:15:49,259840313,21,219011747,2019-04-11 10:17:22,2019-04-11 11:47:37,2019-02-28 07:39:07,Si,45.482202224175175,9.216820577403496,VIALE ABRUZZI 67,20131,1 - OLGETTINA,2177.0,13.0,2 - PORTA VENEZIA - BUENOS AIRES,,1,20190906,10,12,0.4028219040105494
110,110,219011748,74115,15215150,4,1,2019-09-06 10:41:58,2019-09-06 10:41:55,259859470,21,219011748,2019-04-11 10:28:18,2019-04-11 11:43:28,2019-02-28 08:35:52,Si,45.48028430041975,9.216905079673095,VIA PARACELSO 24,20131,1 - OLGETTINA,2168.0,1.0,2 - PORTA VENEZIA - BUENOS AIRES,,1,20190906,10,12,0.27259825301785884
111,111,219011749,74451,15214357,4,2,2019-09-06 10:30:09,2019-09-06 10:30:07,259850798,21,219011749,2019-04-11 11:46:34,2019-04-11 12:01:34,2019-02-27 06:54:46,Si,45.476439088073185,9.21151216386238,PIAZZALE LAVATER JOHANN KASPAR,20129,1 - OLGETTINA,2155.0,8.0,2 - PORTA VENEZIA - BUENOS AIRES,,1,20190906,10,1,0.3610975696886218
112,112,219011753,75002,15213910,4,1,2019-09-06 10:22:57,2019-09-06 10:22:54,259845542,21,219011753,2019-04-11 11:09:17,2019-04-11 11:54:22,2019-02-28 08:17:21,Si,45.48109287173094,9.216193157427256,VIA MATTEUCCI CARLO 2,20129,1 - OLGETTINA,2167.0,1.0,2 - PORTA VENEZIA - BUENOS AIRES,,1,20190906,10,12,0.4199781617015422
113,113,219011754,75219,15204603,4,1,2019-09-06 08:25:17,2019-09-06 08:10:12,259758819,21,219011754,2019-04-11 11:56:47,2019-04-11 11:56:47,2019-02-28 09:48:46,Si,45.47992871499986,9.222913399996855,VIA NOE' ENRICO 34,20131,1 - OLGETTINA,2211.0,5.0,2 - PORTA VENEZIA - BUENOS AIRES,,1,20190906,8,9,0.6517668713104013
114,114,219011755,75419,15205216,4,1,2019-09-06 08:33:21,2019-09-06 08:22:16,259764754,21,219011755,2019-04-11 11:20:03,2019-04-11 11:35:03,2019-02-28 09:27:25,Si,45.47880741560446,9.221665400321283,VIA FUCINI RENATO 2,20133,1 - OLGETTINA,2199.0,10.0,2 - PORTA VENEZIA - BUENOS AIRES,,1,20190906,8,9,0.5012831795415482
115,115,219011756,75612,15192463,4,1,2019-09-06 04:42:12,2019-09-06 04:27:08,259593188,21,219011756,2019-04-11 11:40:49,2019-04-11 11:40:49,2019-02-27 07:32:43,Si,45.47323181695872,9.214794381671595,VIA EUSTACHI BARTOLOMEO 6,20129,1 - OLGETTINA,2165.0,15.0,2 - PORTA VENEZIA - BUENOS AIRES,,1,20190906,4,6,0.3677736125195891
116,116,219011759,76358,15210638,4,1,2019-09-06 09:34:35,2019-09-06 09:34:30,259809853,21,219011759,2019-04-11 09:20:34,2019-04-11 11:35:59,2019-02-28 07:59:31,Si,45.48199472885969,9.214847296109838,VIA MONTEVERDI CLAUDIO 8,20131,1 - OLGETTINA,2237.0,24.0,2 - PORTA VENEZIA - BUENOS AIRES,,1,20190906,9,12,0.5825653102876877
117,117,219011761,76878,15204656,4,1,2019-09-06 08:25:54,2019-09-06 08:25:50,259759292,21,219011761,2019-04-11 09:57:32,2019-04-11 11:57:51,2019-02-28 08:26:34,Si,45.48069251813981,9.216876592711742,VIALE ABRUZZI 51,20131,1 - OLGETTINA,2177.0,15.0,2 - PORTA VENEZIA - BUENOS AIRES,,1,20190906,8,12,0.3052206609213494
118,118,219011762,77106,15203984,4,2,2019-09-06 08:17:30,2019-09-06 08:02:27,259753154,21,219011762,2019-04-11 08:52:54,2019-04-11 11:38:34,2019-02-27 07:17:37,Si,45.47397805114353,9.21314643451933,VIA BALDISSERA ANTONIO 33,20129,1 - OLGETTINA,2164.0,60.0,2 - PORTA VENEZIA - BUENOS AIRES,,1,20190906,8,1,-0.01900293928314395
119,119,219011764,77664,15205058,4,2,2019-09-06 08:31:12,2019-09-06 08:16:11,259763228,21,219011764,2019-04-11 11:31:21,2019-04-11 12:01:27,2019-02-27 07:27:09,Si,45.477557379866326,9.214837085691444,VIA EUSTACHI BARTOLOMEO 40,20129,1 - OLGETTINA,2165.0,4.0,2 - PORTA VENEZIA - BUENOS AIRES,,1,20190906,8,12,0.05053621333431868
120,120,219011766,78247,15203976,4,1,2019-09-06 08:17:23,2019-09-06 08:17:20,259753071,21,219011766,2019-03-11 20:35:43,2019-04-11 11:49:20,2019-02-28 07:57:07,Si,45.48252718449349,9.214883789868964,VIA PICCINNI NICOLA 11,20131,1 - OLGETTINA,2236.0,120.0,2 - PORTA VENEZIA - BUENOS AIRES,,1,20190906,8,12,0.6000373078364688
121,121,219011769,79052,15199256,4,1,2019-09-06 07:11:32,2019-09-06 06:56:28,259704132,21,219011769,2019-04-11 10:09:16,2019-04-11 11:39:33,2019-02-28 08:33:02,Si,45.480227787898215,9.216906072853137,VIALE ABRUZZI 45,20131,1 - OLGETTINA,2177.0,9.0,2 - PORTA VENEZIA - BUENOS AIRES,,1,20190906,6,12,0.2683729105911713
122,122,219011770,79261,15211349,4,1,2019-09-06 09:42:48,2019-09-06 09:42:47,259816078,21,219011770,2019-04-11 10:19:06,2019-04-11 11:49:20,2019-02-28 07:36:56,Si,45.482389886839115,9.216828160394924,VIALE ABRUZZI 69,20131,1 - OLGETTINA,2177.0,13.0,2 - PORTA VENEZIA - BUENOS AIRES,,1,20190906,9,12,0.41108027216324333
123,123,219011771,79665,15216370,1,2,2019-09-06 10:59:57,2019-09-06 10:44:54,259872689,21,219011771,2019-04-11 03:18:50,2019-04-11 12:01:25,2019-02-27 07:23:53,Si,45.47528398605696,9.213246268675787,VIA STOPPANI ANTONIO 14,20129,1 - OLGETTINA,2163.0,2.0,2 - PORTA VENEZIA - BUENOS AIRES,,1,20190906,10,1,0.07073816914667685
124,124,219011772,79944,15216183,4,1,2019-09-06 10:57:12,2019-09-06 10:57:06,259870642,21,219011772,2019-04-11 09:13:01,2019-04-11 11:58:30,2019-02-27 07:20:21,Si,45.47469184245969,9.211546389012026,VIA MAIOCCHI ACHILLE,20129,1 - OLGETTINA,2162.0,1.0,2 - PORTA VENEZIA - BUENOS AIRES,,1,20190906,10,1,0.3355630394262237
125,125,219011773,80105,15210930,4,1,2019-09-06 09:37:43,2019-09-06 09:37:38,259812155,21,219011773,2019-04-11 10:54:31,2019-04-11 11:39:36,2019-02-28 08:00:25,Si,45.48155782843232,9.214708135373712,VIA MONTEVERDI CLAUDIO,20131,1 - OLGETTINA,2237.0,24.0,2 - PORTA VENEZIA - BUENOS AIRES,,1,20190906,9,12,0.5541611761993913
126,126,219011775,80497,15213843,4,2,2019-09-06 10:21:56,2019-09-06 10:21:55,259844776,21,219011775,2019-04-11 09:07:08,2019-04-11 11:52:31,2019-02-03 08:49:06,Si,45.5015235,9.225318699999999,VIA BONO CAIROLI ADELAIDE 24/A,20127,1 - OLGETTINA,2332.0,20.0,20 - PADOVA - ADRIANO,,1,20190906,10,0,0.6076216296573421
127,127,219011779,81226,15206624,4,2,2019-09-06 08:51:53,2019-09-06 08:51:49,259778444,21,219011779,2019-04-11 09:13:14,2019-04-11 11:43:40,2019-02-03 07:18:51,Si,45.5002259,9.2209746,VIALE MONZA,20127,1 - OLGETTINA,2274.0,385.0,20 - PADOVA - ADRIANO,,1,20190906,8,0,0.40300698242638655
128,128,219011781,81845,15190132,4,1,2019-09-06 02:45:25,2019-09-06 02:45:20,259505655,21,219011781,2019-02-11 22:46:14,2019-04-11 11:44:26,2019-04-03 10:06:15,Si,45.4910701,9.2269665,VIA MANCINELLI LUIGI 28,20131,1 - OLGETTINA,2422.0,5.0,9 - CENTRALE - LORETO,,1,20190906,2,19,0.37527669241889
129,129,219011782,82022,15214107,4,2,2019-09-06 10:26:05,2019-09-06 10:26:03,259847826,21,219011782,2019-04-11 11:53:15,2019-04-11 11:53:15,2019-02-03 09:29:51,Si,45.49118289444724,9.223265174868745,VIA PADOVA 45,20127,1 - OLGETTINA,2275.0,607.0,9 - CENTRALE - LORETO,,1,20190906,10,19,0.6345736352040863
130,130,219011783,82330,15201568,4,1,2019-09-06 07:46:58,2019-09-06 07:46:57,259730502,21,219011783,2019-04-11 09:33:27,2019-04-11 11:48:51,2019-02-03 09:31:18,Si,45.490962700000004,9.2231229,VIA PADOVA 41,20131,1 - OLGETTINA,2275.0,611.0,9 - CENTRALE - LORETO,,1,20190906,7,19,0.6383607378350843
131,131,219011784,82601,15196246,4,1,2019-09-06 06:12:40,2019-09-06 05:57:38,259660509,21,219011784,2019-04-11 06:59:02,2019-04-11 11:44:51,2019-02-03 08:50:47,Si,45.5018331,9.225526400000001,VIA RANCATI ILARIONE 27,20127,1 - OLGETTINA,2321.0,25.0,20 - PADOVA - ADRIANO,,1,20190906,5,0,0.6172018377188624
132,132,219011785,82866,15212136,4,1,2019-09-06 09:54:16,2019-09-06 09:54:12,259824417,21,219011785,2019-04-11 09:11:34,2019-04-11 11:51:40,2019-02-03 07:22:31,Si,45.500805,9.2212047,VIALE MONZA 116/M01,20127,1 - OLGETTINA,2274.0,220.0,20 - PADOVA - ADRIANO,,1,20190906,9,0,0.45985413126316815
133,133,219011786,83316,15213383,4,1,2019-09-06 10:14:15,2019-09-06 10:14:11,259839171,21,219011786,2019-04-11 11:15:56,2019-04-11 11:46:01,2019-02-03 09:37:36,Si,45.4913605,9.223195,VIA GIACOSA GIUSEPPE 2,20127,1 - OLGETTINA,2310.0,76.0,9 - CENTRALE - LORETO,,1,20190906,10,19,0.6289735162968464
134,134,219011787,83505,15208296,3,2,2019-09-06 09:08:14,2019-09-06 09:08:13,259790464,21,219011787,2019-04-11 09:28:16,2019-04-11 11:39:36,2019-04-03 09:33:49,Si,45.49589703522884,9.23506396884568,VIA PALMANOVA 59,20132,1 - OLGETTINA,2390.0,245.0,20 - PADOVA - ADRIANO,,1,20190906,9,5,0.22698346317514892
135,135,219011788,83703,15198022,4,1,2019-09-06 06:48:58,2019-09-06 06:48:58,259687567,21,219011788,2019-04-11 07:35:50,2019-04-11 11:47:27,2019-02-03 09:39:04,Si,45.491126200000004,9.2233599,VIA PADOVA 45,20131,1 - OLGETTINA,2275.0,607.0,9 - CENTRALE - LORETO,,1,20190906,6,19,0.6339005499027471
136,136,219011793,84799,15194756,4,1,2019-09-06 05:41:30,2019-09-06 05:26:30,259637459,21,219011793,2019-04-11 08:24:47,2019-04-11 11:40:15,2019-04-03 10:26:28,Si,45.506288991674325,9.222534943082794,VIALE MONZA,20126,1 - OLGETTINA,2274.0,290.0,19 - GORLA - VILLA SAN GIOVANNI,,1,20190906,5,0,0.36794536699502217
137,137,219011796,85601,15196027,4,1,2019-09-06 06:08:00,2019-09-06 06:07:59,259656978,21,219011796,2019-04-11 07:11:27,2019-04-11 11:42:12,2019-02-03 08:26:43,Si,45.50040540840194,9.228870599999935,VIA STAMIRA D'ANCONA,20127,1 - OLGETTINA,2337.0,10.0,20 - PADOVA - ADRIANO,,1,20190906,6,0,0.39989340999888084
138,138,219011797,85842,15214170,4,1,2019-09-06 10:27:04,2019-09-06 10:27:01,259848542,21,219011797,2019-04-11 11:33:00,2019-04-11 12:03:05,2019-02-03 09:21:32,Si,45.49058643426757,9.222461474868735,VIA PADOVA 35,20127,1 - OLGETTINA,2275.0,610.0,9 - CENTRALE - LORETO,,1,20190906,10,19,0.63606889483913
139,139,219011798,86181,15211699,4,1,2019-09-06 09:47:34,2019-09-06 09:32:32,259819563,21,219011798,2019-04-11 11:38:18,2019-04-11 11:38:18,2019-04-03 08:41:21,Si,45.49177250728362,9.226838130981603,VIA LEONCAVALLO R. 31,20131,1 - OLGETTINA,2389.0,10.0,9 - CENTRALE - LORETO,,1,20190906,9,19,0.40366138442308447
140,140,219011799,86473,15211108,4,1,2019-09-06 09:39:56,2019-09-06 09:24:55,259813831,21,219011799,2019-03-11 07:18:16,2019-04-11 12:04:04,2019-02-03 09:36:26,Si,45.491105499999996,9.2232455,VIA PADOVA 6,20131,1 - OLGETTINA,2275.0,607.0,9 - CENTRALE - LORETO,,1,20190906,9,19,0.6378550000657612
141,141,219011801,86909,15213171,4,1,2019-09-06 10:10:59,2019-09-06 10:10:57,259836709,21,219011801,2019-04-11 07:46:03,2019-04-11 11:42:41,2019-02-03 08:05:31,Si,45.502628297374,9.223912491839428,VIA PETROCCHI POLICARPO 10,20127,1 - OLGETTINA,2320.0,21.0,20 - PADOVA - ADRIANO,,1,20190906,10,0,0.6242740850661039
142,142,219011802,87113,15202997,4,1,2019-09-06 08:05:59,2019-09-06 08:05:54,259744542,21,219011802,2019-04-11 08:07:21,2019-04-11 11:37:58,2019-02-03 08:43:08,Si,45.5014701,9.2242231,VIA DOLOMITI 38,20127,1 - OLGETTINA,2334.0,10.0,20 - PADOVA - ADRIANO,,1,20190906,8,0,0.5966112189778685
143,143,219011803,87395,15200464,4,1,2019-09-06 07:30:19,2019-09-06 07:30:19,259718054,21,219011803,2019-04-11 11:01:59,2019-04-11 12:02:08,2019-04-03 08:50:50,Si,45.492151911310955,9.229728066570372,PIAZZA SIRE RAUL,20131,1 - OLGETTINA,2391.0,58.0,9 - CENTRALE - LORETO,,1,20190906,7,14,0.00432769387260398
144,144,219011804,87589,15205160,4,1,2019-09-06 08:32:38,2019-09-06 08:32:36,259764265,21,219011804,2019-04-11 11:45:18,2019-04-11 12:00:18,2019-04-03 10:23:34,Si,45.506613821807115,9.223145594141217,VIALE MONZA 160,20127,1 - OLGETTINA,2274.0,330.0,19 - GORLA - VILLA SAN GIOVANNI,,1,20190906,8,0,0.3371790402404651
145,145,219011805,87887,15214935,4,1,2019-09-06 10:38:36,2019-09-06 10:23:31,259856942,21,219011805,2019-04-11 10:52:00,2019-04-11 11:37:04,2019-02-03 08:03:24,Si,45.50265414450525,9.224030099000627,VIA DOLOMITI,20127,1 - OLGETTINA,2334.0,15.0,20 - PADOVA - ADRIANO,,1,20190906,10,0,0.6267253329786275
146,146,219011809,88763,15206694,4,1,2019-09-06 08:52:53,2019-09-06 08:52:48,259779162,21,219011809,2019-04-11 07:12:28,2019-04-11 11:54:10,2019-02-03 07:28:47,Si,45.5020234,9.221515199999999,VIALE MONZA 2,20127,1 - OLGETTINA,2274.0,280.0,20 - PADOVA - ADRIANO,,1,20190906,8,0,0.531502297441721
147,147,219011813,89307,15198580,4,1,2019-09-06 07:00:29,2019-09-06 06:48:13,259695124,21,219011813,2019-03-11 13:32:09,2019-04-11 12:01:46,2019-02-03 07:53:10,Si,45.5042189,9.2242892,PIAZZA PICCOLI MARTIRI 4,20127,1 - OLGETTINA,2486.0,15.0,19 - GORLA - VILLA SAN GIOVANNI,,1,20190906,6,0,0.5650968174800873
148,148,219011814,89507,15213906,4,2,2019-09-06 10:22:56,2019-09-06 10:22:52,259845508,21,219011814,2019-03-11 18:41:05,2019-04-11 11:54:55,2019-04-03 08:59:41,Si,45.49241763809862,9.231065714614827,VIA PALMANOVA 80,20132,1 - OLGETTINA,2390.0,135.0,21 - PARCO LAMBRO - CIMIANO,,1,20190906,10,14,0.18585599498472838
149,149,219011817,90262,15194371,4,2,2019-09-06 05:32:20,2019-09-06 05:32:17,259630660,21,219011817,2019-04-11 09:33:28,2019-04-11 12:03:52,2019-02-03 08:21:24,Si,45.50157460000001,9.228119699999999,VIA STAMIRA D'ANCONA 27,20127,1 - OLGETTINA,2337.0,10.0,20 - PADOVA - ADRIANO,,1,20190906,5,0,0.4766921732483098
150,150,219011818,90538,15200651,2,2,2019-09-06 07:32:58,2019-09-06 07:32:57,259720030,21,219011818,2019-04-11 10:34:50,2019-04-11 11:35:00,2019-02-03 07:27:20,Si,45.5015646,9.221114199999999,VIALE MONZA 147,20125,1 - OLGETTINA,2274.0,630.0,20 - PADOVA - ADRIANO,,1,20190906,7,0,0.4956213773469656
151,151,219011823,91468,15198530,4,1,2019-09-06 07:00:09,2019-09-06 06:58:05,259694317,21,219011823,2019-04-11 11:11:13,2019-04-11 11:26:13,2019-02-28 09:49:05,Si,45.49010581099474,9.223899552911464,VIA LEONCAVALLO R. 8,20131,1 - OLGETTINA,2389.0,30.0,9 - CENTRALE - LORETO,,1,20190906,6,19,0.5782490385388923
152,152,219011824,91602,15203164,4,1,2019-09-06 08:07:49,2019-09-06 07:52:45,259745827,21,219011824,2019-04-11 08:53:57,2019-04-11 11:39:26,2019-02-28 07:47:37,Si,45.47045031726839,9.211100939673543,VIA PISACANE CARLO 24,20129,1 - OLGETTINA,2188.0,2.0,2 - PORTA VENEZIA - BUENOS AIRES,,1,20190906,7,1,0.13612412674125543
153,153,219011827,92099,15214071,4,1,2019-09-06 10:25:33,2019-09-06 10:10:29,259847399,21,219011827,2019-04-11 11:56:55,2019-04-11 11:56:55,2019-01-03 08:20:19,Si,45.46907453581209,9.223861276872867,VIALE ROMAGNA 2,20133,1 - OLGETTINA,3102.0,1.0,22 - CITTA' STUDI - LAMBRATE,,1,20190906,10,6,0.1994762015962189
154,154,219011830,92850,15214369,4,1,2019-09-06 10:30:29,2019-09-06 10:30:24,259850980,21,219011830,2019-03-11 16:02:29,2019-04-11 12:01:39,2019-02-28 09:43:38,Si,45.488825899999995,9.224655199999999,VIA CASORETTO 16,20131,1 - OLGETTINA,2420.0,27.0,9 - CENTRALE - LORETO,,1,20190906,10,19,0.44469976171845427
155,155,219011831,93143,15214148,4,1,2019-09-06 10:26:47,2019-09-06 10:11:42,259848333,21,219011831,2019-04-11 07:46:34,2019-04-11 11:58:15,2019-01-03 10:21:26,Si,45.480924170220824,9.222853591600712,VIALE GRAN SASSO 37,20131,1 - OLGETTINA,2243.0,15.0,2 - PORTA VENEZIA - BUENOS AIRES,,1,20190906,10,9,0.6457895570753157
156,156,219011835,93953,15198049,4,1,2019-09-06 06:49:31,2019-09-06 06:34:26,259687954,21,219011835,2019-04-11 00:04:27,2019-04-11 11:51:27,2019-02-28 09:40:13,Si,45.4887217,9.2261974,PIAZZA SAN MATERNO 2,20131,1 - OLGETTINA,2423.0,26.0,9 - CENTRALE - LORETO,,1,20190906,6,19,0.3447302673601111
157,157,219011837,94317,15213702,4,1,2019-09-06 10:19:41,2019-09-06 10:04:36,259843149,21,219011837,2019-04-11 11:20:57,2019-04-11 11:51:02,2019-02-28 07:43:56,Si,45.47007410000001,9.211267,VIA PISACANE CARLO 18,20129,1 - OLGETTINA,2188.0,2.0,2 - PORTA VENEZIA - BUENOS AIRES,,1,20190906,10,1,0.0855009603825625
158,158,219011838,94564,15198444,4,1,2019-09-06 06:59:42,2019-09-06 06:56:29,259693139,21,219011838,2019-04-11 10:00:59,2019-04-11 11:46:14,2019-02-28 09:36:38,Si,45.488994500000004,9.226198599999998,PIAZZA SAN MATERNO 1,20131,1 - OLGETTINA,2423.0,10.0,9 - CENTRALE - LORETO,,1,20190906,6,19,0.3720491342342176
159,159,219011843,95228,15196217,4,1,2019-09-06 06:11:56,2019-09-06 05:56:54,259659957,21,219011843,2019-04-11 11:44:30,2019-04-11 11:44:30,2019-02-28 09:51:15,Si,45.489738,9.223659800000002,VIA LEONCAVALLO R. 36,20131,1 - OLGETTINA,2389.0,30.0,9 - CENTRALE - LORETO,,1,20190906,5,19,0.5654424457223206
160,160,219011844,95395,15216555,4,1,2019-09-06 11:02:58,2019-09-06 10:47:56,259874903,21,219011844,2019-04-11 09:22:29,2019-04-11 12:03:45,2019-02-28 09:59:36,Si,45.48903194651575,9.223348282315783,GIARDINO FAUSTO TINELLI L. IANNUCCI 1/Y,20131,1 - OLGETTINA,2725.0,2.0,9 - CENTRALE - LORETO,,1,20190906,10,19,0.522211178777794
161,161,219011845,95531,15201739,4,1,2019-09-06 07:49:21,2019-09-06 07:34:20,259732339,21,219011845,2019-04-11 03:49:19,2019-04-11 11:46:40,2019-02-28 10:12:05,Si,45.489134899999996,9.2306813,VIA CASORETTO 46,20131,1 - OLGETTINA,2420.0,10.0,9 - CENTRALE - LORETO,,1,20190906,7,14,0.30098736107752777
162,162,219011846,95699,15211519,4,2,2019-09-06 09:45:10,2019-09-06 09:45:06,259817790,21,219011846,2019-04-11 06:20:09,2019-04-11 10:46:08,2019-02-28 09:10:31,Si,45.486149299999994,9.229268800000002,VIA PORPORA NICOLA ANTONIO 131,20131,1 - OLGETTINA,2229.0,5.0,9 - CENTRALE - LORETO,,1,20190906,9,14,0.08832403177044792
163,163,219011847,95980,15207769,4,2,2019-09-06 09:03:44,2019-09-06 09:03:42,259787170,21,219011847,2019-04-11 11:05:36,2019-04-11 11:35:40,2019-01-03 09:57:34,Si,45.46786912170214,9.222052938460706,CORSO PLEBISCITI 18,20129,1 - OLGETTINA,3120.0,145.0,3 - PORTA ROMANA - XXII MARZO,,1,20190906,9,6,0.4001832910306609
164,164,219011848,96159,15207070,4,1,2019-09-06 08:56:58,2019-09-06 08:56:53,259782236,21,219011848,2019-04-11 07:31:33,2019-04-11 11:28:15,2019-02-28 09:22:40,Si,45.488767700000004,9.227943199999999,VIA ACCADEMIA 30,20131,1 - OLGETTINA,2429.0,5.0,9 - CENTRALE - LORETO,,1,20190906,8,19,0.13353190192178957
165,165,219011849,96542,15190270,4,1,2019-09-06 02:54:18,2019-09-06 02:54:18,259512359,21,219011849,2019-04-11 11:37:32,2019-04-11 11:52:32,2019-01-03 09:48:04,Si,45.47013655889244,9.21748146677669,VIALE DEI MILLE 48,20129,1 - OLGETTINA,3115.0,3.0,2 - PORTA VENEZIA - BUENOS AIRES,,1,20190906,2,6,0.6349833235507275
166,166,219011853,97203,15203422,1,2,2019-09-06 08:11:02,2019-09-06 07:55:57,259748207,21,219011853,2019-04-11 10:27:38,2019-04-11 11:42:47,2019-02-28 10:26:45,Si,45.4846652,9.223621699999999,VIALE LOMBARDIA 40,20131,1 - OLGETTINA,2400.0,20.0,22 - CITTA' STUDI - LAMBRATE,,1,20190906,7,9,0.23858149494678996
167,167,219011855,97838,15216605,4,2,2019-09-06 11:03:51,2019-09-06 10:48:48,259875501,21,219011855,2019-04-11 10:35:04,2019-04-11 11:35:18,2019-02-28 07:57:02,Si,45.474795,9.210560800000001,VIALE REGINA GIOVANNA 22/A,20129,1 - OLGETTINA,2157.0,3.0,2 - PORTA VENEZIA - BUENOS AIRES,,1,20190906,10,1,0.46116097130936495
168,168,219011857,98315,15201613,4,1,2019-09-06 07:47:37,2019-09-06 07:47:33,259730934,21,219011857,2019-04-11 09:14:50,2019-04-11 11:45:18,2019-02-28 09:07:05,Si,45.485913000000004,9.2265644,VIA AMPERE ANDREA MARIA 104,20131,1 - OLGETTINA,2428.0,30.0,22 - CITTA' STUDI - LAMBRATE,,1,20190906,7,9,0.10808534711698543
169,169,219011858,98533,15209672,4,1,2019-09-06 09:24:29,2019-09-06 09:24:25,259802463,21,219011858,2019-04-11 10:41:11,2019-04-11 11:56:21,2019-02-28 10:18:24,Si,45.4879159,9.2236806,VIALE LOMBARDIA 86,20131,1 - OLGETTINA,2400.0,10.0,9 - CENTRALE - LORETO,,1,20190906,9,19,0.38858119880060005
170,170,219011861,98888,15213873,3,1,2019-09-06 10:22:27,2019-09-06 10:07:25,259845171,21,219011861,2019-09-21 21:54:09,2019-09-22 09:56:08,2019-01-03 10:18:58,Si,45.48082776366826,9.22325804319405,PIAZZALE PIOLA GABRIO 11,20131,1 - OLGETTINA,2216.0,20.0,2 - PORTA VENEZIA - BUENOS AIRES,ANOMALIA TX,1,20190906,10,9,0.6732816970160482
171,171,219011862,99026,15212274,4,1,2019-09-06 09:56:27,2019-09-06 09:56:22,259826023,21,219011862,2019-04-11 11:58:02,2019-04-11 11:58:02,2019-02-28 10:37:31,Si,45.484303999999995,9.222647300000002,VIA VALLAZZE 23,20131,1 - OLGETTINA,2250.0,20.0,2 - PORTA VENEZIA - BUENOS AIRES,,1,20190906,9,9,0.2521577840752103
172,172,219011865,99483,15212486,4,1,2019-09-06 09:59:49,2019-09-06 09:59:44,259828479,21,219011865,2019-04-11 09:15:56,2019-04-11 12:01:24,2019-02-28 09:46:44,Si,45.4894858,9.2235102,PIAZZA DURANTE FRANCESCO,20131,1 - OLGETTINA,2277.0,15.0,9 - CENTRALE - LORETO,,1,20190906,9,19,0.5532651877743069
173,173,219011867,99904,15216684,4,1,2019-09-06 11:05:13,2019-09-06 10:50:08,259876491,21,219011867,2019-04-11 09:36:20,2019-04-11 11:36:40,2019-02-28 10:36:13,Si,45.4843125,9.222164900000001,VIA VALLAZZE 15,20131,1 - OLGETTINA,2250.0,10.0,2 - PORTA VENEZIA - BUENOS AIRES,,1,20190906,10,9,0.21901853846724337
174,174,219011869,100394,15207080,4,1,2019-09-06 08:57:08,2019-09-06 08:42:04,259782345,21,219011869,2019-03-11 19:41:26,2019-04-11 11:59:49,2019-02-28 09:16:39,Si,45.4879076,9.2280049,VIA BIANCO MARIO 56,20131,1 - OLGETTINA,2437.0,20.0,9 - CENTRALE - LORETO,,1,20190906,8,19,0.07294220630504504
175,175,219011871,100666,15197294,4,1,2019-09-06 06:33:56,2019-09-06 06:33:55,259676316,21,219011871,2019-04-11 05:10:16,2019-04-11 11:36:05,2019-02-27 11:13:36,Si,45.4737352,9.2092735,VIA MELZO 16,20129,1 - OLGETTINA,2184.0,1.0,2 - PORTA VENEZIA - BUENOS AIRES,,1,20190906,6,1,0.5285352087969626
176,176,219011872,100933,15208734,4,1,2019-09-06 09:12:44,2019-09-06 09:12:40,259793858,21,219011872,2019-09-23 13:58:20,2019-09-24 06:42:08,2019-02-28 10:43:24,Si,45.484373,9.2261909,VIA VALLAZZE 66,20131,1 - OLGETTINA,2250.0,60.0,22 - CITTA' STUDI - LAMBRATE,ANOMALIA TX,1,20190906,9,9,0.3575010954292624
177,177,219011877,102019,15200988,4,1,2019-09-06 07:38:37,2019-09-06 07:38:34,259724102,21,219011877,2019-04-11 10:05:43,2019-04-11 11:36:04,2019-02-27 09:57:56,Si,45.472478521644106,9.21136825627582,VIA BIXIO NINO 31,20129,1 - OLGETTINA,3133.0,4.0,2 - PORTA VENEZIA - BUENOS AIRES,,1,20190906,7,1,0.22593237888331139
178,178,219011882,102705,15209794,4,1,2019-09-06 09:26:03,2019-09-06 09:11:01,259803632,21,219011882,2019-03-11 15:28:07,2019-04-11 11:57:32,2019-02-28 10:20:32,Si,45.4877261,9.22368,VIALE LOMBARDIA 84,20131,1 - OLGETTINA,2400.0,10.0,9 - CENTRALE - LORETO,,1,20190906,9,19,0.3627430376230189
179,179,219011884,102945,15197287,4,1,2019-09-06 06:33:45,2019-09-06 06:18:40,259676133,21,219011884,2019-04-11 09:34:57,2019-04-11 11:35:19,2019-02-28 10:49:41,Si,45.4846446,9.228951400000001,VIA DELLA SILA 96,20131,1 - OLGETTINA,2433.0,5.0,22 - CITTA' STUDI - LAMBRATE,,1,20190906,6,9,0.10600468227319777
180,180,219011885,103215,15213768,4,1,2019-09-06 10:20:36,2019-09-06 10:20:33,259843864,21,219011885,2019-04-11 09:51:22,2019-04-11 11:51:46,2019-02-26 07:45:14,Si,45.4749248867819,9.217421653315569,VIALE ABRUZZI 9,20129,1 - OLGETTINA,2177.0,2.0,2 - PORTA VENEZIA - BUENOS AIRES,,1,20190906,10,6,0.4577043019779815
181,181,219011886,103439,15204809,4,2,2019-09-06 08:27:54,2019-09-06 08:12:53,259760825,21,219011886,2019-04-11 08:59:14,2019-04-11 11:59:43,2019-02-26 07:57:35,Si,45.476486502930854,9.217395797917105,VIALE ABRUZZI 46,20129,1 - OLGETTINA,2177.0,3.0,2 - PORTA VENEZIA - BUENOS AIRES,,1,20190906,8,6,0.2819081050173406
182,182,219011890,104383,15215860,4,1,2019-09-06 10:52:33,2019-09-06 10:52:28,259867222,21,219011890,2019-04-11 11:39:37,2019-04-11 11:54:37,2019-02-28 11:22:58,Si,45.486063200000004,9.2224413,VIA PORPORA NICOLA ANTONIO 45,20131,1 - OLGETTINA,2229.0,50.0,9 - CENTRALE - LORETO,,1,20190906,10,19,0.13411322230133338
183,183,219011894,105098,15213789,4,1,2019-09-06 10:20:59,2019-09-06 10:05:56,259844107,21,219011894,2019-04-11 10:06:46,2019-04-11 11:52:03,2019-02-27 11:21:40,Si,45.472113679155214,9.208581739252054,VIA KRAMER ANTONIO 12,20129,1 - OLGETTINA,3180.0,3.0,2 - PORTA VENEZIA - BUENOS AIRES,,1,20190906,10,1,0.5000032026089218
184,184,219011895,105419,15206685,4,1,2019-09-06 08:52:46,2019-09-06 08:37:42,259779083,21,219011895,2019-04-11 11:09:19,2019-04-11 11:54:23,2019-02-26 07:46:50,Si,45.4751868579249,9.217469585111873,VIA AMEDEO D'AOSTA 11,20129,1 - OLGETTINA,2095.0,2.0,2 - PORTA VENEZIA - BUENOS AIRES,,1,20190906,8,6,0.42939820789060573
185,185,219011896,105686,15213727,4,1,2019-09-06 10:20:05,2019-09-06 10:19:59,259843444,21,219011896,2019-04-11 11:21:55,2019-04-11 11:52:02,2019-02-27 10:57:49,Si,45.474162756091566,9.209119350525267,VIA LAMBRO 9,20129,1 - OLGETTINA,2186.0,22.0,2 - PORTA VENEZIA - BUENOS AIRES,,1,20190906,10,1,0.5548287543473942
186,186,219011898,106293,15213602,4,1,2019-09-06 10:18:03,2019-09-06 10:17:59,259841939,21,219011898,2019-04-11 09:35:28,2019-04-11 11:35:49,2019-02-28 10:40:39,Si,45.4843294,9.225153500000001,VIA VALLAZZE 59,20131,1 - OLGETTINA,2250.0,50.0,22 - CITTA' STUDI - LAMBRATE,,1,20190906,10,9,0.35255465195657393
187,187,219011899,106583,15189473,3,1,2019-09-06 02:00:35,2019-09-06 01:45:31,259471995,21,219011899,2019-04-11 07:47:52,2019-04-11 11:28:45,2019-02-27 09:06:56,Si,45.4728342,9.2142738,VIA BIXIO NINO 1,20129,1 - OLGETTINA,3133.0,7.0,2 - PORTA VENEZIA - BUENOS AIRES,,1,20190906,1,6,0.313126851316411
188,188,219011902,107171,15214771,4,1,2019-09-06 10:36:13,2019-09-06 10:21:10,259855229,21,219011902,2019-04-11 09:22:41,2019-04-11 11:38:01,2019-02-26 08:58:21,Si,45.47355999745922,9.217659145368998,PIAZZA ASCOLI GRAZIADIO ISAIA,20129,1 - OLGETTINA,3176.0,1.0,2 - PORTA VENEZIA - BUENOS AIRES,,1,20190906,10,6,0.5636106770788671
189,189,219011905,107610,15217119,4,1,2019-09-06 11:11:32,2019-09-06 10:56:31,259881223,21,219011905,2019-12-09 17:42:13,2019-09-13 10:40:49,2019-02-26 08:00:23,Si,45.47683679609541,9.217538947469848,VIA NOE' ENRICO 39,20131,1 - OLGETTINA,2211.0,1.0,2 - PORTA VENEZIA - BUENOS AIRES,ANOMALIA TX,1,20190906,10,6,0.22620475512769087
190,190,219011910,108587,15214733,4,1,2019-09-06 10:35:39,2019-09-06 10:35:39,259854816,21,219011910,2019-04-11 10:06:27,2019-04-11 11:36:41,2019-02-27 08:31:06,Si,45.47771510000001,9.221267300000001,VIA PINTURICCHIO BERNARDINO BETTI 29,20133,1 - OLGETTINA,2195.0,3.0,2 - PORTA VENEZIA - BUENOS AIRES,,1,20190906,10,9,0.353197551377611
191,191,219011912,109118,15214441,4,1,2019-09-06 10:31:25,2019-09-06 10:16:21,259851685,21,219011912,2019-03-11 09:51:35,2019-04-11 12:02:51,2019-02-27 10:25:59,Si,45.4699118,9.210288199999999,VIA POERIO CARLO 8,20129,1 - OLGETTINA,3181.0,2.0,2 - PORTA VENEZIA - BUENOS AIRES,,1,20190906,10,1,0.2180999264362688
192,192,219011916,109817,15206855,4,1,2019-09-06 08:54:27,2019-09-06 08:54:25,259780380,21,219011916,2019-04-11 08:46:50,2019-04-11 10:26:17,2019-02-27 09:48:02,Si,45.472799570528096,9.213415646627027,VIA BIXIO NINO 38,20129,1 - OLGETTINA,3133.0,7.0,2 - PORTA VENEZIA - BUENOS AIRES,,1,20190906,8,6,0.15794750387568907
193,193,219011919,110472,15204974,4,1,2019-09-06 08:30:18,2019-09-06 08:15:17,259762535,21,219011919,2019-04-11 08:47:27,2019-04-11 11:58:06,2019-02-26 09:50:59,Si,45.4747174,9.2219022,VIA PLINIO CAIO S. 69,20129,1 - OLGETTINA,2144.0,10.0,2 - PORTA VENEZIA - BUENOS AIRES,,1,20190906,8,6,0.07387551598637387
194,194,219011922,110834,15208511,4,2,2019-09-06 09:10:08,2019-09-06 09:10:07,259791868,21,219011922,2019-04-11 10:11:12,2019-04-11 11:41:27,2019-02-26 09:33:55,Si,45.47512535304504,9.22061175910926,VIA PLINIO CAIO S. 64,20129,1 - OLGETTINA,2144.0,7.0,2 - PORTA VENEZIA - BUENOS AIRES,,1,20190906,9,6,0.1810449524447328
195,195,219011924,111390,15214312,4,1,2019-09-06 10:29:16,2019-09-06 10:29:16,259850164,21,219011924,2019-04-11 10:29:45,2019-04-11 12:00:07,2019-02-26 09:12:53,Si,45.47493832834757,9.21803702883608,VIA AMEDEO D'AOSTA 7,20129,1 - OLGETTINA,2095.0,170.0,2 - PORTA VENEZIA - BUENOS AIRES,,1,20190906,10,6,0.4293539659239314
196,196,219011925,111558,15204130,1,2,2019-09-06 08:19:28,2019-09-06 08:19:23,259754641,21,219011925,2019-03-11 10:01:04,2019-04-11 11:46:22,2019-02-26 09:42:18,Si,45.4748099,9.2210424,PIAZZA ERBA CARLO,20129,1 - OLGETTINA,3131.0,4.0,2 - PORTA VENEZIA - BUENOS AIRES,,1,20190906,8,6,0.18037979016375522
197,197,219011927,111893,15204435,3,1,2019-09-06 08:23:14,2019-09-06 08:23:10,259757354,21,219011927,2019-04-11 10:17:50,2019-04-11 12:03:07,2019-02-26 08:26:51,Si,45.47638010826145,9.2038433076483,VIA LECCO 6,20124,1 - OLGETTINA,2110.0,2.0,2 - PORTA VENEZIA - BUENOS AIRES,,1,20190906,8,1,0.33709233260261456
198,198,219011928,112205,15203565,4,2,2019-09-06 08:12:44,2019-09-06 08:12:38,259749529,21,219011928,2019-03-11 10:53:57,2019-04-11 11:39:07,2019-02-26 09:31:46,Si,45.47710277118353,9.210100201772091,PIAZZALE LAVATER JOHANN KASPAR 5,20129,1 - OLGETTINA,2155.0,3.0,2 - PORTA VENEZIA - BUENOS AIRES,,1,20190906,8,1,0.41925315479696373
199,199,519011931,112703,15213921,4,2,2019-09-06 10:23:11,2019-09-06 10:23:08,259845716,21,519011931,2019-04-11 11:09:02,2019-04-11 11:54:06,2019-02-26 08:25:27,Si,45.476512960465726,9.216827955678582,VIA MAIOCCHI ACHILLE,20131,1 - OLGETTINA,2162.0,3.0,2 - PORTA VENEZIA - BUENOS AIRES,,1,20190906,10,6,0.2870317410116962
200,200,519011933,113405,15216650,3,1,2019-09-06 11:04:42,2019-09-06 10:49:41,259876133,21,519011933,2019-04-11 10:20:45,2019-04-11 11:35:55,2019-02-26 07:59:02,Si,45.47665766390993,9.206746396593415,VIALE TUNISIA 1,20124,1 - OLGETTINA,2121.0,1.0,2 - PORTA VENEZIA - BUENOS AIRES,,1,20190906,10,1,0.5418408368267379
201,201,519011935,113697,15213944,1,2,2019-09-06 10:23:31,2019-09-06 10:23:25,259845904,21,519011935,2019-04-11 11:55:03,2019-04-11 11:55:03,2019-02-26 08:45:53,Si,45.477049275340796,9.204345098020896,VIA LECCO 7,20124,1 - OLGETTINA,2110.0,2.0,2 - PORTA VENEZIA - BUENOS AIRES,,1,20190906,10,1,0.3277841003517936
202,202,519011936,114008,15203656,4,2,2019-09-06 08:13:40,2019-09-06 08:13:35,259750243,21,519011936,2019-10-20 08:48:58,2019-10-21 08:47:07,2019-02-26 08:39:32,Si,45.473653368495434,9.216883029084556,VIALE ABRUZZI 33,20129,1 - OLGETTINA,2177.0,1.0,2 - PORTA VENEZIA - BUENOS AIRES,ANOMALIA TX,1,20190906,8,6,0.5472185710639357
203,203,519011938,114805,15213057,4,1,2019-09-06 10:09:06,2019-09-06 09:54:00,259835224,21,519011938,2019-04-11 10:39:20,2019-04-11 11:39:29,2019-02-26 08:44:48,Si,45.477132586912425,9.204373500296017,LARGO BELLINTANI FRA PAOLO 3,20124,1 - OLGETTINA,2124.0,2.0,2 - PORTA VENEZIA - BUENOS AIRES,,1,20190906,9,1,0.3222456287903146
204,204,519011947,116429,15197133,4,1,2019-09-06 06:30:27,2019-09-06 06:30:22,259673716,21,519011947,2019-04-11 11:02:34,2019-04-11 12:02:46,2019-02-26 08:18:15,Si,45.47613783637565,9.202105078912384,VIALE VITTORIO VENETO 12,20124,1 - OLGETTINA,2107.0,113.0,2 - PORTA VENEZIA - BUENOS AIRES,,1,20190906,6,1,0.16608411344504587
205,205,519011950,117143,15207582,4,1,2019-09-06 09:02:24,2019-09-06 09:02:20,259786196,21,519011950,2019-04-11 09:33:13,2019-04-11 12:03:40,2019-02-26 08:28:16,Si,45.476325561008956,9.203790339651732,VIA CASTALDI P. 4,20124,1 - OLGETTINA,2119.0,6.0,2 - PORTA VENEZIA - BUENOS AIRES,,1,20190906,9,1,0.33616006315377744
206,206,519011955,118202,15199135,4,1,2019-09-06 07:09:36,2019-09-06 07:09:32,259702661,21,519011955,2019-04-11 11:07:32,2019-04-11 11:37:37,2019-02-26 08:30:37,Si,45.475899300782025,9.204759164523807,VIA CASTALDI P. 3,20124,1 - OLGETTINA,2119.0,7.0,2 - PORTA VENEZIA - BUENOS AIRES,,1,20190906,7,1,0.4549172552691595
207,207,519011956,118519,15200197,4,1,2019-09-06 07:26:45,2019-09-06 07:11:40,259715407,21,519011956,2019-04-11 11:55:09,2019-04-11 11:55:09,2019-02-26 09:17:26,Si,45.47651929154439,9.210636629682654,VIA PANCALDO LEONE,20129,1 - OLGETTINA,2156.0,1.0,2 - PORTA VENEZIA - BUENOS AIRES,,1,20190906,7,1,0.43074996773412866
208,208,519011957,118762,15211400,3,1,2019-09-06 09:43:32,2019-09-06 09:43:26,259816560,21,519011957,2019-04-11 08:13:58,2019-04-11 11:59:32,2019-02-26 10:08:23,Si,45.4751952,9.2211337,PIAZZA ERBA CARLO 63,20129,1 - OLGETTINA,3131.0,3.0,2 - PORTA VENEZIA - BUENOS AIRES,,1,20190906,9,6,0.09774333829564492
209,209,519011959,119277,15213360,4,1,2019-09-06 10:13:44,2019-09-06 09:58:43,259838812,21,519011959,2019-04-11 08:19:07,2019-04-11 11:45:11,2019-02-26 09:38:11,Si,45.47512070000001,9.221096699999999,PIAZZA ERBA CARLO,20129,1 - OLGETTINA,3131.0,3.0,2 - PORTA VENEZIA - BUENOS AIRES,,1,20190906,9,6,0.11750813923879842
210,210,519011962,119889,15203171,4,1,2019-09-06 08:07:53,2019-09-06 08:07:51,259745890,21,519011962,2019-10-16 19:25:05,2019-10-17 08:43:44,2019-02-26 09:56:05,Si,45.474323901103524,9.22313963953536,VIA PLINIO CAIO S.,20133,1 - OLGETTINA,2144.0,25.0,2 - PORTA VENEZIA - BUENOS AIRES,ANOMALIA TX,1,20190906,8,6,-0.036237484792751504
211,211,519011963,120082,15207237,4,1,2019-09-06 08:58:54,2019-09-06 08:58:51,259783620,21,519011963,2019-04-11 11:45:28,2019-04-11 12:00:28,2019-02-26 08:13:48,Si,45.47521517227303,9.20419400847436,PIAZZA OBERDAN GUGLIELMO 15,20124,1 - OLGETTINA,2108.0,8.0,2 - PORTA VENEZIA - BUENOS AIRES,,1,20190906,8,1,0.4442896807918888
212,212,519011966,120507,15212271,4,1,2019-09-06 09:56:27,2019-09-06 09:56:22,259826007,21,519011966,2019-04-11 09:12:45,2019-04-11 11:58:14,2019-02-26 09:36:10,Si,45.47475408971072,9.22086076256562,VIA PASCOLI GIOVANNI,20129,1 - OLGETTINA,3132.0,130.0,2 - PORTA VENEZIA - BUENOS AIRES,,1,20190906,9,6,0.2122718977420905
213,213,519012214,120911,15199116,4,1,2019-09-06 07:09:14,2019-09-06 07:09:10,259702375,21,519012214,2019-04-11 09:40:36,2019-04-11 11:40:57,2019-11-05 07:28:02,Si,45.491947067271134,9.20398698613792,VIA GIOIA MELCHIORRE 88,20125,1 - OLGETTINA,1108.0,105.0,9 - CENTRALE - LORETO,,1,20190906,7,17,0.22833720370281216
214,214,819013540,122178,15216579,2,2,2019-09-06 11:03:21,2019-09-06 10:48:20,259875187,21,819013540,2019-04-11 11:35:40,2019-04-11 11:35:40,2019-12-06 08:59:04,Si,45.48072963523772,9.18432563443082,VIALE CRISPI FRANCESCO 7,20121,1 - OLGETTINA,1063.0,2.0,1 - CENTRO,,1,20190906,10,7,0.5206285736593558
215,215,1219014035,124182,15211847,4,2,2019-09-06 09:49:42,2019-09-06 09:49:38,259821147,21,1219014035,2019-04-11 11:20:55,2019-04-11 11:51:01,2019-02-07 08:16:56,Si,45.4777937725607,9.208534873264847,CORSO BUENOS AIRES 22,20124,1 - OLGETTINA,2129.0,6.0,2 - PORTA VENEZIA - BUENOS AIRES,,1,20190906,9,1,0.45302277564148014
216,216,1219014043,126170,15203965,4,1,2019-09-06 08:17:14,2019-09-06 08:17:13,259752973,21,1219014043,2019-04-11 10:18:19,2019-04-11 11:48:34,2019-02-07 08:15:31,Si,45.47757648408216,9.208284647885193,CORSO BUENOS AIRES 20,20124,1 - OLGETTINA,2129.0,5.0,2 - PORTA VENEZIA - BUENOS AIRES,,1,20190906,8,1,0.48547012930992844
217,217,1219014055,128060,15211988,4,1,2019-09-06 09:51:50,2019-09-06 09:51:47,259822619,21,1219014055,2019-04-11 11:38:20,2019-04-11 11:53:20,2019-02-07 07:49:19,Si,45.4752714,9.205904499999999,CORSO BUENOS AIRES 2/M01,20124,1 - OLGETTINA,2129.0,16.0,2 - PORTA VENEZIA - BUENOS AIRES,,1,20190906,9,1,0.5561550394072154
218,218,1219014061,129186,15215924,1,2,2019-09-06 10:53:32,2019-09-06 10:53:30,259867982,21,1219014061,2019-04-11 09:09:47,2019-04-11 11:55:22,2019-03-07 07:50:26,Si,45.47703370000001,9.2075756,CORSO BUENOS AIRES 13,20124,1 - OLGETTINA,2129.0,5.0,2 - PORTA VENEZIA - BUENOS AIRES,,1,20190906,10,1,0.5488551067190791
219,219,1219014062,129418,15202727,4,2,2019-09-06 08:02:14,2019-09-06 08:02:12,259741750,21,1219014062,2019-04-11 08:32:45,2019-04-11 12:03:35,2019-02-07 08:00:19,Si,45.476323300479386,9.207081926292062,CORSO BUENOS AIRES 10,20124,1 - OLGETTINA,2129.0,3.0,2 - PORTA VENEZIA - BUENOS AIRES,,1,20190906,8,1,0.5728640219916248
220,220,1219014076,132132,15217066,2,2,2019-09-06 11:10:52,2019-09-06 10:55:48,259880609,21,1219014076,2019-04-11 10:11:33,2019-04-11 11:41:50,2019-02-07 08:08:27,Si,45.47696895363226,9.207773344673114,CORSO BUENOS AIRES,20124,1 - OLGETTINA,2129.0,5.0,2 - PORTA VENEZIA - BUENOS AIRES,,1,20190906,10,1,0.5480569407219358
221,221,1219014323,134340,15208042,4,1,2019-09-06 09:06:04,2019-09-06 08:51:03,259788937,21,1219014323,2019-04-11 09:36:57,2019-04-11 11:37:19,2019-02-07 08:33:58,Si,45.48001044546571,9.210690912303107,CORSO BUENOS AIRES 41,20124,1 - OLGETTINA,2129.0,8.0,2 - PORTA VENEZIA - BUENOS AIRES,,1,20190906,8,12,0.13474592036036856
222,222,1219014324,134754,15213020,4,1,2019-09-06 10:08:24,2019-09-06 10:08:19,259834785,21,1219014324,2019-04-11 07:13:14,2019-04-11 11:39:38,2019-02-07 09:05:57,Si,45.47782706002573,9.208331306535342,CORSO BUENOS AIRES 19,20124,1 - OLGETTINA,2129.0,6.0,2 - PORTA VENEZIA - BUENOS AIRES,,1,20190906,10,1,0.4598088752766993
223,223,1219014327,134965,15216219,2,2,2019-09-06 10:57:43,2019-09-06 10:57:41,259871030,21,1219014327,2019-04-11 09:28:27,2019-04-11 10:58:44,2019-02-07 08:55:10,Si,45.479092153769635,9.209580046875542,CORSO BUENOS AIRES 31,20124,1 - OLGETTINA,2129.0,8.0,2 - PORTA VENEZIA - BUENOS AIRES,,1,20190906,10,1,0.18827317563203075
224,224,1219014330,135336,15200512,4,1,2019-09-06 07:31:02,2019-09-06 07:30:56,259718524,21,1219014330,2019-04-11 08:17:08,2019-04-11 12:02:57,2019-02-07 08:58:51,Si,45.47869331992778,9.209180058266382,CORSO BUENOS AIRES 25,20124,1 - OLGETTINA,2129.0,7.0,2 - PORTA VENEZIA - BUENOS AIRES,,1,20190906,7,1,0.29403116163177717
225,225,1219014333,135572,15211958,4,1,2019-09-06 09:51:25,2019-09-06 09:51:20,259822315,21,1219014333,2019-04-11 09:07:21,2019-04-11 11:52:57,2019-02-07 08:19:05,Si,45.477894583517845,9.208650266519044,CORSO BUENOS AIRES 22,20124,1 - OLGETTINA,2129.0,6.0,2 - PORTA VENEZIA - BUENOS AIRES,,1,20190906,9,1,0.43596150823047475
226,226,1219014335,135828,15210914,4,1,2019-09-06 09:37:30,2019-09-06 09:37:28,259812049,21,1219014335,2019-04-11 10:38:46,2019-04-11 11:38:56,2019-02-07 08:05:05,Si,45.476580555756165,9.207239466829831,CORSO BUENOS AIRES,20124,1 - OLGETTINA,2129.0,4.0,2 - PORTA VENEZIA - BUENOS AIRES,,1,20190906,9,1,0.567385482435484
227,227,1219014342,136538,15211427,4,2,2019-09-06 09:43:53,2019-09-06 09:28:49,259816833,21,1219014342,2019-04-11 10:44:54,2019-04-11 11:45:05,2019-02-07 08:11:29,Si,45.4772644897476,9.20796295648347,CORSO BUENOS AIRES 18,20124,1 - OLGETTINA,2129.0,5.0,2 - PORTA VENEZIA - BUENOS AIRES,,1,20190906,9,1,0.5225827264345406
228,228,1219014344,136838,15216838,4,1,2019-09-06 11:07:19,2019-09-06 10:52:17,259878035,21,1219014344,2019-04-11 10:23:00,2019-04-11 11:38:08,2019-02-07 08:35:15,Si,45.48007005879811,9.21074521394803,CORSO BUENOS AIRES 41,20124,1 - OLGETTINA,2129.0,8.0,2 - PORTA VENEZIA - BUENOS AIRES,,1,20190906,10,12,0.15299463462220525
229,229,1219014349,137774,15214505,3,2,2019-09-06 10:32:17,2019-09-06 10:32:12,259852364,21,1219014349,2019-04-11 09:02:53,2019-04-11 12:03:29,2019-02-07 08:29:41,Si,45.479031799999994,9.2098041,CORSO BUENOS AIRES 42,20124,1 - OLGETTINA,2129.0,8.0,2 - PORTA VENEZIA - BUENOS AIRES,,1,20190906,10,1,0.17369490736596882
230,230,1219014369,141164,15208640,2,2,2019-09-06 09:11:36,2019-09-06 08:56:35,259793037,21,1219014369,2019-03-11 12:58:14,2019-04-11 11:43:03,2019-07-26 08:10:22,Si,45.485562078851345,9.207010187696142,PIAZZA LUIGI DI SAVOIA 22,20124,1 - OLGETTINA,2260.0,6.0,9 - CENTRALE - LORETO,,1,20190906,8,10,0.09177518492167278
231,231,1219014372,141997,15207518,4,1,2019-09-06 09:01:34,2019-09-06 09:01:33,259785646,21,1219014372,2019-04-11 11:47:13,2019-04-11 12:02:13,2019-07-26 07:30:48,Si,45.48622355009381,9.206702896837212,PIAZZA LUIGI DI SAVOIA,20125,1 - OLGETTINA,2260.0,7.0,9 - CENTRALE - LORETO,,1,20190906,9,10,0.14285928242227525
232,232,1219014376,143195,15204774,4,1,2019-09-06 08:27:28,2019-09-06 08:27:26,259760488,21,1219014376,2019-04-11 10:13:56,2019-04-11 11:59:18,2019-07-26 07:56:13,Si,45.48561560432882,9.205997992101855,PIAZZA LUIGI DI SAVOIA 1/17,20125,1 - OLGETTINA,2260.0,10.0,9 - CENTRALE - LORETO,,1,20190906,8,10,0.28176965667027015
233,233,1219014378,143786,15212920,4,1,2019-09-06 10:06:57,2019-09-06 10:06:55,259833727,21,1219014378,2019-01-11 09:26:03,2019-04-11 11:41:35,2019-07-26 08:05:45,Si,45.485203881977746,9.206587801748473,PIAZZA LUIGI DI SAVOIA,20124,1 - OLGETTINA,2260.0,5.0,9 - CENTRALE - LORETO,,1,20190906,10,10,0.18404575624006167
234,234,1219014380,144342,15215822,3,2,2019-09-06 10:52:00,2019-09-06 10:51:56,259866804,21,1219014380,2019-03-11 20:58:37,2019-04-11 11:57:22,2019-07-26 07:50:46,Si,45.48580221110101,9.20626744261608,PIAZZA LUIGI DI SAVOIA 1/26,20125,1 - OLGETTINA,2260.0,7.0,9 - CENTRALE - LORETO,,1,20190906,10,10,0.23285938574769108
235,235,1219014383,145434,15201790,1,2,2019-09-06 07:49:57,2019-09-06 07:49:55,259732738,21,1219014383,2019-04-11 10:35:51,2019-04-11 11:51:00,2019-07-26 08:49:30,Si,45.4851653209082,9.205730457092725,PIAZZA LUIGI DI SAVOIA,20124,1 - OLGETTINA,2260.0,490.0,9 - CENTRALE - LORETO,,1,20190906,7,10,0.3312383473740389
236,236,1219014385,145955,15213818,4,1,2019-09-06 10:21:38,2019-09-06 10:21:36,259844554,21,1219014385,2019-04-11 11:53:12,2019-04-11 11:53:12,2019-07-26 09:50:18,Si,45.4852864410172,9.205594219903332,PIAZZA LUIGI DI SAVOIA 1/13,20125,1 - OLGETTINA,2260.0,490.0,9 - CENTRALE - LORETO,,1,20190906,10,10,0.34853521932920045
237,237,1219014387,146909,15213697,4,1,2019-09-06 10:19:28,2019-09-06 10:19:26,259843029,21,1219014387,2019-04-11 09:19:59,2019-04-11 11:50:27,2019-07-26 09:48:19,Si,45.485428365635386,9.205656160505557,PIAZZA LUIGI DI SAVOIA 1/14,20125,1 - OLGETTINA,2260.0,475.0,9 - CENTRALE - LORETO,,1,20190906,10,10,0.33708502612463387
238,238,1219014392,148464,15214668,2,2,2019-09-06 10:34:50,2019-09-06 10:34:47,259854182,21,1219014392,2019-04-11 11:43:07,2019-04-11 11:58:07,2019-07-26 08:03:15,Si,45.48530570192807,9.206602510233779,PIAZZA LUIGI DI SAVOIA,20124,1 - OLGETTINA,2260.0,7.0,9 - CENTRALE - LORETO,,1,20190906,10,10,0.1801238259545657
239,239,1219014394,148892,15213947,4,1,2019-09-06 10:23:32,2019-09-06 10:08:29,259845937,21,1219014394,2019-04-11 11:09:06,2019-04-11 11:54:11,2019-07-26 07:52:13,Si,45.485750714953824,9.206202179169397,PIAZZA LUIGI DI SAVOIA 1/23,20125,1 - OLGETTINA,2260.0,7.0,9 - CENTRALE - LORETO,,1,20190906,10,10,0.2452528050381279
240,240,1219014395,149217,15215081,4,2,2019-09-06 10:40:46,2019-09-06 10:40:42,259858498,21,1219014395,2019-11-10 16:56:42,2019-11-10 19:16:25,2019-07-25 08:09:12,Si,45.485215435691366,9.202247611120242,PIAZZA DUCA D'AOSTA EMANUELE,20125,1 - OLGETTINA,1200.0,558.0,9 - CENTRALE - LORETO,ANOMALIA TX,1,20190906,10,10,0.6151570020759526
241,241,1219014396,149564,15213633,1,2,2019-09-06 10:18:36,2019-09-06 10:18:32,259842349,21,1219014396,2019-04-11 11:19:49,2019-04-11 11:49:55,2019-07-26 09:47:13,Si,45.485452685998055,9.205778168500958,PIAZZA LUIGI DI SAVOIA 1/14,20125,1 - OLGETTINA,2260.0,490.0,9 - CENTRALE - LORETO,,1,20190906,10,10,0.3190356470617564
242,242,1219014397,149990,15213527,4,1,2019-09-06 10:16:41,2019-09-06 10:01:37,259840916,21,1219014397,2019-04-11 11:33:06,2019-04-11 11:48:06,2019-07-26 08:45:03,Si,45.48469598781092,9.205802241262859,PIAZZA LUIGI DI SAVOIA,20124,1 - OLGETTINA,2260.0,490.0,9 - CENTRALE - LORETO,,1,20190906,10,10,0.32449070436235256
243,243,1219014406,152465,15215727,4,1,2019-09-06 10:50:44,2019-09-06 10:35:44,259865997,21,1219014406,2019-04-11 11:39:30,2019-04-11 11:54:30,2019-07-25 07:49:14,Si,45.485127362334175,9.203387896738716,PIAZZA DUCA D'AOSTA EMANUELE,20125,1 - OLGETTINA,1200.0,558.0,9 - CENTRALE - LORETO,,1,20190906,10,10,0.5657878960294582
244,244,1219014409,153491,15214295,3,1,2019-09-06 10:29:07,2019-09-06 10:14:02,259849999,21,1219014409,2019-04-11 11:00:04,2019-04-11 12:00:13,2019-07-26 08:58:29,Si,45.48500137714646,9.205638971999292,PIAZZA LUIGI DI SAVOIA,20124,1 - OLGETTINA,2260.0,490.0,9 - CENTRALE - LORETO,,1,20190906,10,10,0.34648074605115425
245,245,1219014412,154131,15201688,1,2,2019-09-06 07:48:37,2019-09-06 07:48:35,259731748,21,1219014412,2019-04-11 09:50:38,2019-04-11 11:50:57,2019-07-26 08:17:10,Si,45.485902653905754,9.20717868713109,PIAZZA LUIGI DI SAVOIA 24,20124,1 - OLGETTINA,2260.0,7.0,9 - CENTRALE - LORETO,,1,20190906,7,10,0.049466711192945795
246,246,1219014415,155078,15203182,4,2,2019-09-06 08:08:01,2019-09-06 07:52:58,259745979,21,1219014415,2019-04-11 10:39:32,2019-04-11 11:39:43,2019-07-16 08:36:22,Si,45.48035405899476,9.199103372963918,VIA PISANI VITTOR 32,20124,1 - OLGETTINA,1201.0,60.0,9 - CENTRALE - LORETO,,1,20190906,7,10,0.47612533253570644
247,247,1219014424,157254,15196142,4,2,2019-09-06 06:10:34,2019-09-06 06:10:29,259658890,21,1219014424,2019-10-27 17:13:10,2019-04-11 11:42:38,2019-07-17 08:09:38,Si,45.479319226216774,9.19499202104123,VIALE MONTE SANTO 6,20124,1 - OLGETTINA,1056.0,301.0,9 - CENTRALE - LORETO,,1,20190906,6,10,0.22874952868038442
248,248,1219014425,157472,15215014,4,1,2019-09-06 10:39:49,2019-09-06 10:24:44,259857766,21,1219014425,2019-04-11 11:40:37,2019-04-11 11:40:37,2019-07-19 08:07:59,Si,45.4770715,9.199817900000001,VIALE CITTA' DI FIUME 24,20124,1 - OLGETTINA,2715.0,104.0,9 - CENTRALE - LORETO,,1,20190906,10,10,0.15861203782365998
249,249,1219014433,159164,15208451,4,1,2019-09-06 09:09:43,2019-09-06 09:09:38,259791444,21,1219014433,2019-04-11 09:40:26,2019-04-11 11:40:56,2019-07-16 08:37:50,Si,45.480341221746386,9.19911922209019,VIA PISANI VITTOR 32,20124,1 - OLGETTINA,1201.0,60.0,9 - CENTRALE - LORETO,,1,20190906,9,10,0.47519885768434156
250,250,1219014434,159420,15202903,4,1,2019-09-06 08:04:37,2019-09-06 07:49:32,259743495,21,1219014434,2019-04-11 09:20:49,2019-04-11 11:36:10,2019-07-16 07:32:47,Si,45.477994332896884,9.19595792186567,PIAZZA DELLA REPUBBLICA,20121,1 - OLGETTINA,1055.0,303.0,1 - CENTRO,,1,20190906,7,10,0.3227617019040807
251,251,1219014435,159553,15207019,4,1,2019-09-06 08:56:21,2019-09-06 08:41:16,259781763,21,1219014435,2019-04-11 11:27:54,2019-04-11 11:57:59,2019-07-17 08:24:32,Si,45.48059761412792,9.187454489864306,PIAZZA VENTICINQUE APRILE,20154,1 - OLGETTINA,1064.0,260.0,1 - CENTRO,,1,20190906,8,7,0.4924577052746556
252,252,1219014442,160997,15203303,4,1,2019-09-06 08:09:49,2019-09-06 08:09:45,259747292,21,1219014442,2019-04-11 10:56:17,2019-04-11 11:41:22,2019-07-15 08:38:01,Si,45.481877399999995,9.200040800000002,VIA PISANI VITTOR,20124,1 - OLGETTINA,1201.0,5.0,9 - CENTRALE - LORETO,,1,20190906,8,10,0.5556780894294364
253,253,1219014443,161305,15216586,2,2,2019-09-06 11:03:27,2019-09-06 10:48:23,259875227,21,1219014443,2019-04-11 11:04:42,2019-04-11 11:04:42,2019-07-19 07:31:20,Si,45.46950810335083,9.205720036453387,VIALE MAJNO LUIGI 10,20129,1 - OLGETTINA,2178.0,2.0,1 - CENTRO,,1,20190906,10,1,0.4743313598503389
254,254,1219014444,161454,15207470,4,2,2019-09-06 09:01:14,2019-09-06 08:46:11,259785309,21,1219014444,2019-04-11 09:02:12,2019-04-11 12:02:42,2019-07-16 07:59:39,Si,45.477810528455755,9.197134136966156,PIAZZA DELLA REPUBBLICA,20121,1 - OLGETTINA,1055.0,113.0,1 - CENTRO,,1,20190906,8,10,0.31431362639147514
255,255,1219014447,161836,15208074,4,1,2019-09-06 09:06:19,2019-09-06 09:06:17,259789110,21,1219014447,2019-02-11 18:54:12,2019-04-11 11:38:06,2019-07-15 08:34:03,Si,45.48235503169074,9.200544553453712,VIA CARETTO AMINTO,20124,1 - OLGETTINA,1193.0,1.0,9 - CENTRALE - LORETO,,1,20190906,9,10,0.5748106010829459
256,256,1219014448,162106,15207139,4,1,2019-09-06 08:57:45,2019-09-06 08:57:43,259782816,21,1219014448,2019-04-11 11:29:06,2019-04-11 11:59:14,2019-07-16 07:56:13,Si,45.477909747144686,9.196369670694594,PIAZZA DELLA REPUBBLICA,20121,1 - OLGETTINA,1055.0,1.0,1 - CENTRO,,1,20190906,8,10,0.3255097359612514
257,257,1219014449,162279,15210524,3,1,2019-09-06 09:33:23,2019-09-06 09:33:21,259809047,21,1219014449,2019-09-19 06:06:49,2019-09-19 07:37:08,2019-07-18 10:02:07,Si,45.475892706816225,9.201623822065244,BASTIONI DI PORTA VENEZIA,20124,1 - OLGETTINA,2106.0,108.0,1 - CENTRO,ANOMALIA TX,1,20190906,9,1,0.13787069604200922
258,258,1219014450,162372,15214314,4,1,2019-09-06 10:29:22,2019-09-06 10:14:19,259850203,21,1219014450,2019-10-31 23:32:26,2019-04-11 12:00:56,2019-07-17 08:57:38,Si,45.48143536817575,9.184807514432578,VIALE PASUBIO 5,20154,1 - OLGETTINA,1112.0,30.0,1 - CENTRO,,1,20190906,10,7,0.5468793578970603
259,259,1219014452,162751,15212181,4,1,2019-09-06 09:55:04,2019-09-06 09:40:02,259825028,21,1219014452,2019-04-11 09:41:13,2019-04-11 11:56:34,2019-07-19 07:23:13,Si,45.468536199059784,9.205987913325089,VIA PINDEMONTE IPPOLITO 2,20129,1 - OLGETTINA,3046.0,1.0,1 - CENTRO,,1,20190906,9,1,0.41987499863729355
260,260,1219014456,163262,15206753,4,2,2019-09-06 08:53:29,2019-09-06 08:53:24,259779600,21,1219014456,2019-04-11 08:24:09,2019-04-11 11:54:45,2019-07-16 07:51:56,Si,45.47708641374612,9.19652949016836,PIAZZA DELLA REPUBBLICA 1,20121,1 - OLGETTINA,1055.0,304.0,1 - CENTRO,,1,20190906,8,10,0.2690263079306321
261,261,1219014457,163379,15202675,4,1,2019-09-06 08:01:36,2019-09-06 07:50:33,259741293,21,1219014457,2019-04-11 11:47:57,2019-04-11 12:02:57,2019-07-18 10:00:47,Si,45.47576463313797,9.201794316399626,BASTIONI DI PORTA VENEZIA,20124,1 - OLGETTINA,2106.0,108.0,1 - CENTRO,,1,20190906,7,1,0.1690579527016385
262,262,1219014458,163668,15213052,4,1,2019-09-06 10:09:00,2019-09-06 09:53:57,259835188,21,1219014458,2019-04-11 07:13:20,2019-04-11 11:40:06,2019-07-17 09:07:32,Si,45.480967215924,9.186972681760722,PIAZZA VENTICINQUE APRILE 14,20154,1 - OLGETTINA,1064.0,7.0,8 - GARIBALDI REPUBBLICA - ISOLA,,1,20190906,9,7,0.5211289455722501
263,263,1219014459,164072,15202990,4,1,2019-09-06 08:05:52,2019-09-06 08:05:48,259744454,21,1219014459,2019-04-11 09:07:00,2019-04-11 11:37:29,2019-07-17 09:05:12,Si,45.481290200000004,9.1856356,VIALE PASUBIO 6,20154,1 - OLGETTINA,1112.0,25.0,8 - GARIBALDI REPUBBLICA - ISOLA,,1,20190906,8,7,0.5437747862128208
264,264,1219014460,164319,15202372,4,2,2019-09-06 07:57:24,2019-09-06 07:57:21,259738210,21,1219014460,2019-03-11 12:59:22,2019-04-11 11:59:11,2019-07-16 08:56:13,Si,45.48337967370431,9.202119520485669,VIA PISANI VITTOR 26,20124,1 - OLGETTINA,1201.0,8.0,9 - CENTRALE - LORETO,,1,20190906,7,10,0.5972865659310121
265,265,1219014461,164659,15204067,4,1,2019-09-06 08:18:33,2019-09-06 08:18:27,259753911,21,1219014461,2019-04-11 09:19:33,2019-04-11 11:49:59,2019-07-15 08:46:45,Si,45.480815037822964,9.198941746860214,VIA PISANI VITTOR,20124,1 - OLGETTINA,1201.0,3.0,9 - CENTRALE - LORETO,,1,20190906,8,10,0.5038106399247534
266,266,1219014462,164929,15213738,4,2,2019-09-06 10:20:13,2019-09-06 10:05:09,259843555,21,1219014462,2019-04-11 09:06:31,2019-04-11 11:51:59,2019-07-16 09:48:11,Si,45.47871979894651,9.196851445319794,PIAZZA DELLA REPUBBLICA,20124,1 - OLGETTINA,1055.0,310.0,9 - CENTRALE - LORETO,,1,20190906,10,10,0.3766364190580369
267,267,1219014463,165175,15215405,4,1,2019-09-06 10:45:52,2019-09-06 10:45:50,259862348,21,1219014463,2019-04-11 11:01:49,2019-04-11 11:46:54,2019-07-20 09:14:25,Si,45.47668464512318,9.200658476487774,VIALE VITTORIO VENETO 20,20124,1 - OLGETTINA,2107.0,102.0,9 - CENTRALE - LORETO,,1,20190906,10,10,0.04621750640075223
268,268,1219014464,165394,15203603,1,2,2019-09-06 08:13:03,2019-09-06 08:13:02,259749827,21,1219014464,2019-04-11 10:44:26,2019-04-11 11:44:35,2019-07-20 07:41:21,Si,45.47201099919647,9.206708491460404,VIALE PIAVE 28,20129,1 - OLGETTINA,2179.0,610.0,2 - PORTA VENEZIA - BUENOS AIRES,,1,20190906,8,1,0.5713351195922968
269,269,1219014465,165605,15215249,4,1,2019-09-06 10:43:29,2019-09-06 10:43:27,259860610,21,1219014465,2019-04-11 10:29:37,2019-04-11 11:44:47,2019-07-20 08:11:42,Si,45.46769478375597,9.206261169707886,PIAZZA DEL TRICOLORE 2,20129,1 - OLGETTINA,3047.0,1.0,1 - CENTRO,,1,20190906,10,1,0.36782197454065035
270,270,1219014470,166566,15196736,4,1,2019-09-06 06:22:45,2019-09-06 06:22:40,259668030,21,1219014470,2019-04-11 11:54:37,2019-04-11 11:54:37,2019-07-20 07:21:49,Si,45.46918844868738,9.207040931360098,VIA GOLDONI CARLO 6,20129,1 - OLGETTINA,3183.0,1.0,2 - PORTA VENEZIA - BUENOS AIRES,,1,20190906,6,1,0.42476504352894845
271,271,1219014472,167034,15202770,1,2,2019-09-06 08:02:46,2019-09-06 08:02:42,259742142,21,1219014472,2019-04-11 09:34:17,2019-04-11 12:04:45,2019-07-20 07:31:10,Si,45.471915383884074,9.206730413842136,VIALE PIAVE 2,20129,1 - OLGETTINA,2179.0,590.0,2 - PORTA VENEZIA - BUENOS AIRES,,1,20190906,8,1,0.567130359370709
272,272,1219014477,167975,15209791,4,1,2019-09-06 09:26:02,2019-09-06 09:25:58,259803587,21,1219014477,2019-04-11 10:27:17,2019-04-11 11:57:32,2019-07-18 07:54:29,Si,45.48112921909358,9.188281493544423,VIA ROSALES GASPARE 3,20124,1 - OLGETTINA,1110.0,1.0,8 - GARIBALDI REPUBBLICA - ISOLA,,1,20190906,9,7,0.4883820904633532
273,273,1219014480,168819,15216529,2,2,2019-09-06 11:02:34,2019-09-06 10:47:31,259874627,21,1219014480,2019-04-11 12:03:55,2019-04-11 12:03:55,2019-07-20 07:30:31,Si,45.47195351781468,9.206780433380573,VIA BIXIO NINO 2,20129,1 - OLGETTINA,3133.0,1.0,2 - PORTA VENEZIA - BUENOS AIRES,,1,20190906,10,1,0.5675588916686912
274,274,1219014484,169782,15201647,1,2,2019-09-06 07:48:05,2019-09-06 07:33:03,259731329,21,1219014484,2019-04-11 11:34:54,2019-04-11 11:49:54,2019-07-18 07:46:34,Si,45.480814805726155,9.189063522164588,VIALE MONTE GRAPPA 16,20124,1 - OLGETTINA,1101.0,2.0,8 - GARIBALDI REPUBBLICA - ISOLA,,1,20190906,7,7,0.4369712302811115
275,275,1219014485,169989,15207430,4,1,2019-09-06 09:00:54,2019-09-06 08:45:50,259785033,21,1219014485,2019-04-11 11:47:41,2019-04-11 12:02:41,2019-07-20 07:59:08,Si,45.46859445510543,9.206794614646242,VIALE PIAVE 1,20129,1 - OLGETTINA,2179.0,3.0,1 - CENTRO,,1,20190906,8,1,0.40050329504995247
276,276,1219014489,170787,15204638,1,2,2019-09-06 08:25:40,2019-09-06 08:10:36,259759117,21,1219014489,2019-04-11 11:57:29,2019-04-11 11:57:29,2019-07-20 07:24:02,Si,45.47009179186578,9.206968133005262,VIALE PIAVE 12/A,20129,1 - OLGETTINA,2179.0,4.0,2 - PORTA VENEZIA - BUENOS AIRES,,1,20190906,8,1,0.4755534320726156
277,277,1219014492,171352,15216008,2,2,2019-09-06 10:54:34,2019-09-06 10:39:32,259868767,21,1219014492,2019-04-11 11:55:40,2019-04-11 11:55:40,2019-07-20 07:52:39,Si,45.47043817090639,9.20662036552494,VIALE PIAVE 15,20129,1 - OLGETTINA,2179.0,3.0,1 - CENTRO,,1,20190906,10,1,0.5034052301816218
278,278,1219014495,171984,15205050,4,1,2019-09-06 08:31:08,2019-09-06 08:16:05,259763134,21,1219014495,2019-04-11 11:02:14,2019-04-11 12:02:26,2019-07-18 07:59:46,Si,45.48099340770798,9.187117186575732,PIAZZA VENTICINQUE APRILE 14,20154,1 - OLGETTINA,1064.0,3.0,8 - GARIBALDI REPUBBLICA - ISOLA,,1,20190906,8,7,0.5194244170482475
279,279,1219014498,172541,15197599,4,1,2019-09-06 06:40:10,2019-09-06 06:25:05,259680936,21,1219014498,2019-04-11 09:41:26,2019-04-11 11:41:47,2019-07-18 08:09:04,Si,45.48098971894725,9.187017896100542,CORSO COMO 14,20154,1 - OLGETTINA,1111.0,1.0,8 - GARIBALDI REPUBBLICA - ISOLA,,1,20190906,6,7,0.52135143917215
280,280,1219014502,173200,15211272,4,1,2019-09-06 09:41:47,2019-09-06 09:41:46,259815280,21,1219014502,2019-04-11 09:58:05,2019-04-11 11:43:19,2019-07-18 08:09:59,Si,45.481011446665924,9.18703338676346,CORSO COMO 14,20154,1 - OLGETTINA,1111.0,1.0,8 - GARIBALDI REPUBBLICA - ISOLA,,1,20190906,9,7,0.5219916220479591
281,281,1219014503,173517,15215804,3,1,2019-09-06 10:51:42,2019-09-06 10:51:36,259866564,21,1219014503,2019-04-11 09:41:57,2019-04-11 11:57:16,2019-07-20 07:49:42,Si,45.47064955047957,9.206613529187507,VIALE PIAVE 15,20129,1 - OLGETTINA,2179.0,3.0,1 - CENTRO,,1,20190906,10,1,0.5136601894631735
282,282,1219014504,173777,15215766,3,1,2019-09-06 10:51:13,2019-09-06 10:51:10,259866286,21,1219014504,2019-04-11 11:51:55,2019-04-11 11:51:55,2019-07-20 07:19:35,Si,45.469135937036285,9.207049872053403,VIALE PIAVE 4,20129,1 - OLGETTINA,2179.0,2.0,2 - PORTA VENEZIA - BUENOS AIRES,,1,20190906,10,1,0.4215125939897984
283,283,1219014508,174217,15216509,4,2,2019-09-06 11:02:17,2019-09-06 10:47:12,259874381,21,1219014508,2019-04-11 12:03:07,2019-04-11 12:03:07,2019-07-20 08:30:32,Si,45.47408027171614,9.206594682518016,PIAZZA OBERDAN GUGLIELMO 4,20129,1 - OLGETTINA,2108.0,9.0,2 - PORTA VENEZIA - BUENOS AIRES,,1,20190906,10,1,0.6078988686175739
284,284,1219014509,174379,15206168,3,1,2019-09-06 08:45:47,2019-09-06 08:45:41,259773954,21,1219014509,2019-04-11 10:02:02,2019-04-11 11:47:21,2019-07-20 07:44:20,Si,45.47195480423061,9.206499377739648,VIALE PIAVE 1,20129,1 - OLGETTINA,2179.0,6.0,1 - CENTRO,,1,20190906,8,1,0.5726907643510923
285,285,1219014512,175239,15213183,4,2,2019-09-06 10:11:07,2019-09-06 10:11:05,259836831,21,1219014512,2019-04-11 09:11:51,2019-04-11 11:42:15,2019-07-18 08:39:41,Si,45.481757492507235,9.187199572944447,CORSO COMO 9,20154,1 - OLGETTINA,1111.0,1.0,8 - GARIBALDI REPUBBLICA - ISOLA,,1,20190906,10,7,0.5477392517381748
286,286,1219014513,175619,15195546,4,1,2019-09-06 05:57:49,2019-09-06 05:57:47,259649658,21,1219014513,2019-04-11 11:25:34,2019-04-11 11:55:39,2019-07-18 09:53:06,Si,45.47480443567105,9.203951808723446,BASTIONI DI PORTA VENEZIA,20124,1 - OLGETTINA,2106.0,108.0,1 - CENTRO,,1,20190906,5,1,0.441321349314831
287,287,1219014516,176365,15213296,4,1,2019-09-06 10:12:59,2019-09-06 09:57:56,259838226,21,1219014516,2019-04-11 09:14:03,2019-04-11 11:44:28,2019-07-18 08:11:01,Si,45.48101020988668,9.187022959853834,CORSO COMO 14,20154,1 - OLGETTINA,1111.0,1.0,8 - GARIBALDI REPUBBLICA - ISOLA,,1,20190906,9,7,0.5221381462562387
288,288,1219014517,176558,15208160,4,1,2019-09-06 09:07:03,2019-09-06 09:07:00,259789570,21,1219014517,2019-04-11 10:38:03,2019-04-11 11:38:13,2019-07-18 08:05:31,Si,45.48082593083559,9.186991902138061,PIAZZA VENTICINQUE APRILE 16/A,20154,1 - OLGETTINA,1064.0,250.0,1 - CENTRO,,1,20190906,9,7,0.5143199174948438
289,289,1219014518,176794,15216275,3,2,2019-09-06 10:58:36,2019-09-06 10:43:32,259871651,21,1219014518,2019-04-11 11:59:55,2019-04-11 11:59:55,2019-07-18 08:26:37,Si,45.48264936253143,9.187308153246137,CORSO COMO 15,20154,1 - OLGETTINA,1111.0,3.0,8 - GARIBALDI REPUBBLICA - ISOLA,,1,20190906,10,7,0.5765779142665591
290,290,1219014519,177155,15209899,4,1,2019-09-06 09:27:12,2019-09-06 09:12:06,259804430,21,1219014519,2019-04-11 10:28:14,2019-04-11 11:28:24,2019-07-17 08:55:43,Si,45.48158144585452,9.184524683534164,VIALE PASUBIO 7,20154,1 - OLGETTINA,1112.0,2.0,8 - GARIBALDI REPUBBLICA - ISOLA,,1,20190906,9,7,0.5496645831742061
291,291,1219014533,180499,15204520,4,1,2019-09-06 08:24:15,2019-09-06 08:09:12,259758111,21,1219014533,2019-04-11 11:10:20,2019-04-11 11:55:25,2019-07-17 08:23:03,Si,45.480469916598956,9.18761070834296,PIAZZA VENTICINQUE APRILE 10,20154,1 - OLGETTINA,1064.0,260.0,1 - CENTRO,,1,20190906,8,7,0.4815647083497533
292,292,1219014535,181052,15202549,4,2,2019-09-06 07:59:44,2019-09-06 07:44:41,259739929,21,1219014535,2019-04-11 11:31:12,2019-04-11 12:01:16,2019-07-18 08:58:38,Si,45.48355498684887,9.188195400960012,VIALE STURZO DON LUIGI,20154,1 - OLGETTINA,1704.0,190.0,8 - GARIBALDI REPUBBLICA - ISOLA,,1,20190906,7,7,0.578803193583065
293,293,1219014539,181584,15216648,4,2,2019-09-06 11:04:42,2019-09-06 10:49:36,259876099,21,1219014539,2019-04-11 11:35:47,2019-04-11 11:35:47,2019-07-18 08:32:45,Si,45.48237777378919,9.18742469705717,CORSO COMO 14,20154,1 - OLGETTINA,1111.0,1.0,8 - GARIBALDI REPUBBLICA - ISOLA,,1,20190906,10,7,0.5653419827587806
294,294,1219014540,181875,15215119,4,1,2019-09-06 10:41:24,2019-09-06 10:41:21,259859034,21,1219014540,2019-04-11 08:11:36,2019-04-11 11:42:07,2019-07-17 09:10:05,Si,45.48110038312375,9.186404269666696,PIAZZA VENTICINQUE APRILE 7,20154,1 - OLGETTINA,1064.0,7.0,8 - GARIBALDI REPUBBLICA - ISOLA,,1,20190906,10,7,0.5332630959560777
295,295,1219014545,183163,15213748,4,1,2019-09-06 10:20:21,2019-09-06 10:05:20,259843703,20,1219014545,2019-04-11 09:51:01,2019-04-11 11:51:21,2019-07-17 09:49:02,No,45.48037575549835,9.192841951077526,PIAZZALE PRINCIPESSA CLOTILDE 10/A,20124,1 - OLGETTINA,1061.0,4.0,8 - GARIBALDI REPUBBLICA - ISOLA,,1,20190906,10,7,0.07458882880493181
296,296,1219014547,183681,15216151,4,2,2019-09-06 10:56:42,2019-09-06 10:41:37,259870289,21,1219014547,2019-04-11 07:05:58,2019-04-11 11:36:42,2019-07-18 08:25:05,Si,45.48283703795832,9.187348897964512,CORSO COMO 17,20154,1 - OLGETTINA,1111.0,3.0,8 - GARIBALDI REPUBBLICA - ISOLA,,1,20190906,10,7,0.5814136731288833
297,297,1219014552,184681,15214345,3,1,2019-09-06 10:30:00,2019-09-06 10:14:55,259850633,21,1219014552,2019-04-11 12:00:20,2019-04-11 12:00:20,2019-07-18 09:55:36,Si,45.475216883907315,9.203037407924851,BASTIONI DI PORTA VENEZIA,20124,1 - OLGETTINA,2106.0,108.0,1 - CENTRO,,1,20190906,10,1,0.33910602657211647
298,298,1219014559,186354,15213217,4,1,2019-09-06 10:11:37,2019-09-06 09:56:36,259837256,21,1219014559,2019-04-11 11:12:35,2019-04-11 11:42:40,2019-07-25 08:10:19,Si,45.48517511775991,9.20210860151019,PIAZZA DUCA D'AOSTA EMANUELE,20124,1 - OLGETTINA,1200.0,558.0,9 - CENTRALE - LORETO,,1,20190906,9,10,0.6196384514331273
299,299,1219014562,186781,15216284,4,2,2019-09-06 10:58:43,2019-09-06 10:43:37,259871741,21,1219014562,2019-04-11 11:29:23,2019-04-11 11:59:28,2019-07-23 07:57:00,Si,45.4857376850352,9.20239445605273,PIAZZA DUCA D'AOSTA EMANUELE,20124,1 - OLGETTINA,1200.0,570.0,9 - CENTRALE - LORETO,,1,20190906,10,10,0.5983073156558814
300,300,1219014563,187045,15193039,4,1,2019-09-06 04:59:26,2019-09-06 04:44:23,259606117,21,1219014563,2019-03-11 16:28:11,2019-04-11 11:57:46,2019-07-23 07:24:45,Si,45.48689147769903,9.203365600644588,PIAZZA QUATTRO NOVEMBRE,20124,1 - OLGETTINA,1199.0,24.0,9 - CENTRALE - LORETO,,1,20190906,4,10,0.5119255330786228
301,301,1219014564,187496,15216173,4,1,2019-09-06 10:57:04,2019-09-06 10:41:59,259870553,21,1219014564,2019-10-30 10:32:42,2019-10-30 14:03:57,2019-07-23 07:55:20,Si,45.48590746485739,9.202345833393792,PIAZZA DUCA D'AOSTA EMANUELE,20124,1 - OLGETTINA,1200.0,572.0,9 - CENTRALE - LORETO,,1,20190906,10,10,0.5952534258157958
302,302,1219014567,188520,15216403,4,1,2019-09-06 11:00:44,2019-09-06 10:45:39,259873175,21,1219014567,2019-04-11 04:19:47,2019-04-11 11:51:05,2019-07-25 08:28:48,Si,45.48434629803296,9.203376872766512,PIAZZA DUCA D'AOSTA EMANUELE,20125,1 - OLGETTINA,1200.0,558.0,9 - CENTRALE - LORETO,,1,20190906,10,10,0.5771086906339615
303,303,1219014568,188838,15213347,4,1,2019-09-06 10:13:37,2019-09-06 10:13:35,259838699,21,1219014568,2019-04-11 09:59:21,2019-04-11 11:44:35,2019-07-25 07:42:13,Si,45.48506984853582,9.203517585398913,PIAZZA DUCA D'AOSTA EMANUELE,20125,1 - OLGETTINA,1200.0,558.0,9 - CENTRALE - LORETO,,1,20190906,10,10,0.5585801357979862
304,304,1219014570,189639,15206831,4,2,2019-09-06 08:54:11,2019-09-06 08:54:08,259780172,21,1219014570,2019-04-11 09:10:08,2019-04-11 11:55:33,2019-07-23 07:22:44,Si,45.48642536202616,9.203089062357774,PIAZZA QUATTRO NOVEMBRE 2,20125,1 - OLGETTINA,1199.0,24.0,9 - CENTRALE - LORETO,,1,20190906,8,10,0.5456924044107635
305,305,1219014573,190772,15211799,4,1,2019-09-06 09:49:00,2019-09-06 09:48:55,259820615,21,1219014573,2019-04-11 11:20:17,2019-04-11 11:50:21,2019-07-25 08:16:55,Si,45.484892149721325,9.202561039120157,PIAZZA DUCA D'AOSTA EMANUELE,20125,1 - OLGETTINA,1200.0,558.0,9 - CENTRALE - LORETO,,1,20190906,9,10,0.6108252255097039
306,306,1219014575,191512,15216727,1,2,2019-09-06 11:05:51,2019-09-06 10:50:46,259876939,21,1219014575,2019-09-21 20:56:58,2019-04-11 11:41:59,2019-07-23 08:34:49,Si,45.48388902574514,9.202619743283664,PIAZZA DUCA D'AOSTA EMANUELE,20124,1 - OLGETTINA,1200.0,6.0,9 - CENTRALE - LORETO,,1,20190906,10,10,0.6051651737295505
307,307,1219014578,192288,15217279,4,1,2019-09-06 11:13:52,2019-09-06 10:58:50,259882949,21,1219014578,2019-04-11 11:14:42,2019-04-11 11:44:47,2019-07-25 08:42:18,Si,45.484218006204024,9.20397432391701,PIAZZA DUCA D'AOSTA EMANUELE,20125,1 - OLGETTINA,1200.0,558.0,9 - CENTRALE - LORETO,,1,20190906,10,10,0.5345291271716136
308,308,1219014579,192781,15217174,2,2,2019-09-06 11:12:29,2019-09-06 10:57:24,259881857,21,1219014579,2019-04-11 11:43:42,2019-04-11 11:43:42,2019-07-23 08:40:58,Si,45.48388710704632,9.203318371282649,PIAZZA DUCA D'AOSTA EMANUELE 6,20125,1 - OLGETTINA,1200.0,7.0,9 - CENTRALE - LORETO,,1,20190906,10,10,0.5815829889156447
309,309,1219014582,193894,15212564,4,1,2019-09-06 10:01:21,2019-09-06 09:46:16,259829594,21,1219014582,2019-04-11 12:03:19,2019-04-11 12:03:19,2019-07-25 07:59:01,Si,45.48513258330618,9.202834577510316,PIAZZA DUCA D'AOSTA EMANUELE,20125,1 - OLGETTINA,1200.0,558.0,9 - CENTRALE - LORETO,,1,20190906,9,10,0.5953843965909149
310,310,1219014584,194556,15208309,4,1,2019-09-06 09:08:26,2019-09-06 09:08:21,259790546,21,1219014584,2019-04-11 11:25:18,2019-04-11 11:40:18,2019-07-25 10:06:56,Si,45.486020265175476,9.207436855017702,PIAZZA LUIGI DI SAVOIA 28,20124,1 - OLGETTINA,2260.0,6.0,9 - CENTRALE - LORETO,,1,20190906,9,12,-0.0016641946683615884
311,311,1219014585,194881,15207538,2,2,2019-09-06 09:01:56,2019-09-06 09:01:52,259785844,21,1219014585,2019-04-11 11:04:44,2019-04-11 11:34:50,2019-07-23 08:29:36,Si,45.48386715721938,9.203048079603377,PIAZZA DUCA D'AOSTA EMANUELE 4,20125,1 - OLGETTINA,1200.0,7.0,9 - CENTRALE - LORETO,,1,20190906,9,10,0.5921212304483321
312,312,1219014587,195452,15210046,4,1,2019-09-06 09:28:44,2019-09-06 09:28:39,259805565,21,1219014587,2019-04-11 10:30:15,2019-04-11 12:00:33,2019-07-23 08:27:08,Si,45.48384760035914,9.202874203076817,PIAZZA DUCA D'AOSTA EMANUELE,20125,1 - OLGETTINA,1200.0,6.0,9 - CENTRALE - LORETO,,1,20190906,9,10,0.5970945726681588
313,313,1219014591,197224,15211107,4,1,2019-09-06 09:39:56,2019-09-06 09:39:55,259813830,21,1219014591,2019-04-11 11:41:05,2019-04-11 11:41:05,2019-07-26 08:08:46,Si,45.48530619808488,9.206775407166331,PIAZZA LUIGI DI SAVOIA 20,20124,1 - OLGETTINA,2260.0,6.0,9 - CENTRALE - LORETO,,1,20190906,9,10,0.14511171246142945
314,314,1219014592,197626,15211018,4,1,2019-09-06 09:38:50,2019-09-06 09:23:45,259812944,21,1219014592,2019-04-11 09:09:44,2019-04-11 11:40:08,2019-07-23 07:37:14,Si,45.48626894181231,9.202344829993306,PIAZZA QUATTRO NOVEMBRE,20124,1 - OLGETTINA,1199.0,21.0,9 - CENTRALE - LORETO,,1,20190906,9,10,0.5842009812799835
315,315,1219014593,197909,15213898,4,1,2019-09-06 10:22:50,2019-09-06 10:07:48,259845459,21,1219014593,2019-04-11 08:23:37,2019-04-11 11:54:12,2019-07-25 08:21:19,Si,45.48466699987004,9.202737670762986,PIAZZA DUCA D'AOSTA EMANUELE,20125,1 - OLGETTINA,1200.0,558.0,9 - CENTRALE - LORETO,,1,20190906,10,10,0.607165072805283
